{
"type": "FeatureCollection",
"name": "utah_hospitals",
"features": [
{ "type": "Feature", "properties": { "FID": 1, "OBJECTID": 352, "ID": "0005784060", "NAME": "PARK CITY MEDICAL CENTER", "ADDRESS": "900 ROUND VALLEY DRIVE", "CITY": "PARK CITY", "STATE": "UT", "ZIP": "84060", "ZIP4": "NOT AVAILABLE", "TELEPHONE": "(435) 658-7000", "TYPE": "GENERAL ACUTE CARE", "STATUS": "OPEN", "POPULATION": 26, "COUNTY": "SUMMIT", "COUNTYFIPS": "49043", "COUNTRY": "USA", "LATITUDE": 40.6874543610001, "LONGITUDE": -111.469482247, "NAICS_CODE": "622110", "NAICS_DESC": "GENERAL MEDICAL AND SURGICAL HOSPITALS", "SOURCE": "https:\/\/opendata.utah.gov\/Health\/Utah-Hospital-Characteristics\/ierb-h3t5\/data", "SOURCEDATE": "2018\/08\/11", "VAL_METHOD": "IMAGERY\/OTHER", "VAL_DATE": "2014\/03\/12", "WEBSITE": "http:\/\/intermountainhealthcare.org", "STATE_ID": "NOT AVAILABLE", "ALT_NAME": "NOT AVAILABLE", "ST_FIPS": "49", "OWNER": "NON-PROFIT", "TTL_STAFF": -999, "BEDS": 26, "TRAUMA": "LEVEL IV", "HELIPAD": "Y" }, "geometry": { "type": "Point", "coordinates": [ -111.469482247000101, 40.687454361000071 ] } },
{ "type": "Feature", "properties": { "FID": 2, "OBJECTID": 845, "ID": "0166284115", "NAME": "MARIAN CENTER", "ADDRESS": "451 EAST BISHOP FEDERAL LANE", "CITY": "SALT LAKE CITY", "STATE": "UT", "ZIP": "84115", "ZIP4": "NOT AVAILABLE", "TELEPHONE": "(801) 487-7557", "TYPE": "CRITICAL ACCESS", "STATUS": "CLOSED", "POPULATION": -999, "COUNTY": "SALT LAKE", "COUNTYFIPS": "49035", "COUNTRY": "USA", "LATITUDE": 40.7282720850001, "LONGITUDE": -111.877969846, "NAICS_CODE": "622110", "NAICS_DESC": "GENERAL MEDICAL AND SURGICAL HOSPITALS", "SOURCE": "http:\/\/gis.utah.gov\/", "SOURCEDATE": "2015\/05\/20", "VAL_METHOD": "IMAGERY\/OTHER", "VAL_DATE": "2015\/06\/01", "WEBSITE": "NOT AVAILABLE", "STATE_ID": "NOT AVAILABLE", "ALT_NAME": "NOT AVAILABLE", "ST_FIPS": "49", "OWNER": "NOT AVAILABLE", "TTL_STAFF": -999, "BEDS": -999, "TRAUMA": "NOT AVAILABLE", "HELIPAD": "N" }, "geometry": { "type": "Point", "coordinates": [ -111.877969845999672, 40.728272085000029 ] } },
{ "type": "Feature", "properties": { "FID": 3, "OBJECTID": 846, "ID": "0166784511", "NAME": "BLUE MOUNTAIN HOSPITAL", "ADDRESS": "802 SOUTH 200 WEST", "CITY": "BLANDING", "STATE": "UT", "ZIP": "84511", "ZIP4": "NOT AVAILABLE", "TELEPHONE": "(435) 678-3993", "TYPE": "CRITICAL ACCESS", "STATUS": "OPEN", "POPULATION": -999, "COUNTY": "SAN JUAN", "COUNTYFIPS": "49037", "COUNTRY": "USA", "LATITUDE": 37.613066427, "LONGITUDE": -109.482486143, "NAICS_CODE": "622110", "NAICS_DESC": "GENERAL MEDICAL AND SURGICAL HOSPITALS", "SOURCE": "https:\/\/opendata.utah.gov\/Health\/Utah-Hospital-Characteristics\/ierb-h3t5\/data", "SOURCEDATE": "2018\/08\/11", "VAL_METHOD": "IMAGERY\/OTHER", "VAL_DATE": "2015\/06\/01", "WEBSITE": "NOT AVAILABLE", "STATE_ID": "NOT AVAILABLE", "ALT_NAME": "NOT AVAILABLE", "ST_FIPS": "49", "OWNER": "NOT AVAILABLE", "TTL_STAFF": -999, "BEDS": -999, "TRAUMA": "NOT AVAILABLE", "HELIPAD": "N" }, "geometry": { "type": "Point", "coordinates": [ -109.482486143000088, 37.613066427000028 ] } },
{ "type": "Feature", "properties": { "FID": 4, "OBJECTID": 1388, "ID": "0002084759", "NAME": "GARFIELD MEMORIAL HOSPITAL", "ADDRESS": "200 NORTH 400 EAST", "CITY": "PANGUITCH", "STATE": "UT", "ZIP": "84759", "ZIP4": "NOT AVAILABLE", "TELEPHONE": "(435) 676-8811", "TYPE": "GENERAL ACUTE CARE", "STATUS": "OPEN", "POPULATION": 41, "COUNTY": "GARFIELD", "COUNTYFIPS": "49017", "COUNTRY": "USA", "LATITUDE": 37.826428741000001, "LONGITUDE": -112.426922269, "NAICS_CODE": "622110", "NAICS_DESC": "GENERAL MEDICAL AND SURGICAL HOSPITALS", "SOURCE": "https:\/\/opendata.utah.gov\/Health\/Utah-Hospital-Characteristics\/ierb-h3t5\/data", "SOURCEDATE": "2018\/08\/11", "VAL_METHOD": "IMAGERY\/OTHER", "VAL_DATE": "2014\/02\/10", "WEBSITE": "http:\/\/www.ihc.com\/hospitals\/garfield", "STATE_ID": "NOT AVAILABLE", "ALT_NAME": "NOT AVAILABLE", "ST_FIPS": "49", "OWNER": "NON-PROFIT", "TTL_STAFF": -999, "BEDS": 41, "TRAUMA": "NOT AVAILABLE", "HELIPAD": "Y" }, "geometry": { "type": "Point", "coordinates": [ -112.426922268999732, 37.826428741000015 ] } },
{ "type": "Feature", "properties": { "FID": 5, "OBJECTID": 1419, "ID": "0003784120", "NAME": "PIONEER VALLEY HOSPITAL", "ADDRESS": "3460 SOUTH PIONEER PARKWAY", "CITY": "WEST VALLEY CITY", "STATE": "UT", "ZIP": "84120", "ZIP4": "NOT AVAILABLE", "TELEPHONE": "(801) 964-3100", "TYPE": "GENERAL ACUTE CARE", "STATUS": "OPEN", "POPULATION": 101, "COUNTY": "SALT LAKE", "COUNTYFIPS": "49035", "COUNTRY": "USA", "LATITUDE": 40.697872791000101, "LONGITUDE": -111.990880383, "NAICS_CODE": "622110", "NAICS_DESC": "GENERAL MEDICAL AND SURGICAL HOSPITALS", "SOURCE": "https:\/\/opendata.utah.gov\/Health\/Utah-Hospital-Characteristics\/ierb-h3t5\/data", "SOURCEDATE": "2018\/08\/11", "VAL_METHOD": "IMAGERY\/OTHER", "VAL_DATE": "2014\/03\/12", "WEBSITE": "http:\/\/www.pioneervalleyhospital.com", "STATE_ID": "NOT AVAILABLE", "ALT_NAME": "NOT AVAILABLE", "ST_FIPS": "49", "OWNER": "PROPRIETARY", "TTL_STAFF": -999, "BEDS": 101, "TRAUMA": "NOT AVAILABLE", "HELIPAD": "Y" }, "geometry": { "type": "Point", "coordinates": [ -111.99088038300026, 40.69787279100008 ] } },
{ "type": "Feature", "properties": { "FID": 6, "OBJECTID": 1420, "ID": "0167184097", "NAME": "PROVO CANYON BEHAVIORAL HOSPITAL", "ADDRESS": "1350 EAST 750 NORTH", "CITY": "OREM", "STATE": "UT", "ZIP": "84097", "ZIP4": "NOT AVAILABLE", "TELEPHONE": "(801) 227-2100", "TYPE": "PSYCHIATRIC", "STATUS": "OPEN", "POPULATION": -999, "COUNTY": "UTAH", "COUNTYFIPS": "49049", "COUNTRY": "USA", "LATITUDE": 40.310669022000098, "LONGITUDE": -111.663795605, "NAICS_CODE": "622210", "NAICS_DESC": "PSYCHIATRIC AND SUBSTANCE ABUSE HOSPITALS", "SOURCE": "https:\/\/opendata.utah.gov\/Health\/Utah-Hospital-Characteristics\/ierb-h3t5\/data", "SOURCEDATE": "2018\/08\/11", "VAL_METHOD": "IMAGERY\/OTHER", "VAL_DATE": "2015\/06\/01", "WEBSITE": "http:\/\/www.pcbh.com\/", "STATE_ID": "NOT AVAILABLE", "ALT_NAME": "NOT AVAILABLE", "ST_FIPS": "49", "OWNER": "PROPRIETARY", "TTL_STAFF": -999, "BEDS": -999, "TRAUMA": "NOT AVAILABLE", "HELIPAD": "N" }, "geometry": { "type": "Point", "coordinates": [ -111.663795605000189, 40.310669022000084 ] } },
{ "type": "Feature", "properties": { "FID": 7, "OBJECTID": 1421, "ID": "0167584751", "NAME": "MILFORD VALLEY MEMORIAL HOSPITAL", "ADDRESS": "850 NORTH MAIN STREET", "CITY": "MILFORD", "STATE": "UT", "ZIP": "84751", "ZIP4": "NOT AVAILABLE", "TELEPHONE": "(435) 387-2411", "TYPE": "CRITICAL ACCESS", "STATUS": "OPEN", "POPULATION": 23, "COUNTY": "BEAVER", "COUNTYFIPS": "49001", "COUNTRY": "USA", "LATITUDE": 38.401809060000097, "LONGITUDE": -113.010658259, "NAICS_CODE": "622110", "NAICS_DESC": "GENERAL MEDICAL AND SURGICAL HOSPITALS", "SOURCE": "https:\/\/opendata.utah.gov\/Health\/Utah-Hospital-Characteristics\/ierb-h3t5\/data", "SOURCEDATE": "2018\/08\/11", "VAL_METHOD": "IMAGERY\/OTHER", "VAL_DATE": "2015\/06\/01", "WEBSITE": "http:\/\/beaver.utah.gov\/index.aspx?NID=98", "STATE_ID": "NOT AVAILABLE", "ALT_NAME": "NOT AVAILABLE", "ST_FIPS": "49", "OWNER": "GOVERNMENT - DISTRICT\/AUTHORITY", "TTL_STAFF": -999, "BEDS": 23, "TRAUMA": "NOT AVAILABLE", "HELIPAD": "N" }, "geometry": { "type": "Point", "coordinates": [ -113.010658258999683, 38.401809060000026 ] } },
{ "type": "Feature", "properties": { "FID": 8, "OBJECTID": 1422, "ID": "0167684095", "NAME": "SOUTH JORDAN HEALTH CENTER", "ADDRESS": "5126 WEST DAYBREAK PARKWAY", "CITY": "SOUTH JORDAN", "STATE": "UT", "ZIP": "84095", "ZIP4": "NOT AVAILABLE", "TELEPHONE": "NOT AVAILABLE", "TYPE": "CRITICAL ACCESS", "STATUS": "OPEN", "POPULATION": -999, "COUNTY": "SALT LAKE", "COUNTYFIPS": "49035", "COUNTRY": "USA", "LATITUDE": 40.541743873000001, "LONGITUDE": -112.013352673, "NAICS_CODE": "622110", "NAICS_DESC": "GENERAL MEDICAL AND SURGICAL HOSPITALS", "SOURCE": "https:\/\/opendata.utah.gov\/Health\/Utah-Hospital-Characteristics\/ierb-h3t5\/data", "SOURCEDATE": "2018\/08\/11", "VAL_METHOD": "IMAGERY\/OTHER", "VAL_DATE": "2015\/05\/21", "WEBSITE": "NOT AVAILABLE", "STATE_ID": "NOT AVAILABLE", "ALT_NAME": "NOT AVAILABLE", "ST_FIPS": "49", "OWNER": "NOT AVAILABLE", "TTL_STAFF": -999, "BEDS": -999, "TRAUMA": "NOT AVAILABLE", "HELIPAD": "Y" }, "geometry": { "type": "Point", "coordinates": [ -112.01335267299973, 40.541743873000023 ] } },
{ "type": "Feature", "properties": { "FID": 9, "OBJECTID": 1423, "ID": "0007384043", "NAME": "MOUNTAIN POINT MEDICAL CENTER", "ADDRESS": "3000 NORTH TRIUMPH BLVD", "CITY": "LEHI", "STATE": "UT", "ZIP": "84043", "ZIP4": "NOT AVAILABLE", "TELEPHONE": "(385) 345-3000", "TYPE": "GENERAL ACUTE CARE", "STATUS": "OPEN", "POPULATION": -999, "COUNTY": "UTAH", "COUNTYFIPS": "49049", "COUNTRY": "USA", "LATITUDE": 40.425339997999998, "LONGITUDE": -111.878540077, "NAICS_CODE": "622110", "NAICS_DESC": "GENERAL MEDICAL AND SURGICAL HOSPITALS", "SOURCE": "https:\/\/opendata.utah.gov\/Health\/Utah-Hospital-Characteristics\/ierb-h3t5\/data", "SOURCEDATE": "2018\/08\/11", "VAL_METHOD": "IMAGERY\/OTHER", "VAL_DATE": "2017\/02\/24", "WEBSITE": "http:\/\/www.mountainpointmedicalcenter.com\/", "STATE_ID": "NOT AVAILABLE", "ALT_NAME": "NOT AVAILABLE", "ST_FIPS": "49", "OWNER": "PROPRIETARY", "TTL_STAFF": -999, "BEDS": -999, "TRAUMA": "NOT AVAILABLE", "HELIPAD": "Y" }, "geometry": { "type": "Point", "coordinates": [ -111.878540077000082, 40.425339997999963 ] } },
{ "type": "Feature", "properties": { "FID": 10, "OBJECTID": 1424, "ID": "0004484532", "NAME": "MOAB REGIONAL HOSPITAL", "ADDRESS": "450 WEST WILLIAMS WAY", "CITY": "MOAB", "STATE": "UT", "ZIP": "84532", "ZIP4": "NOT AVAILABLE", "TELEPHONE": "(435) 259-7191", "TYPE": "CRITICAL ACCESS", "STATUS": "OPEN", "POPULATION": 19, "COUNTY": "GRAND", "COUNTYFIPS": "49019", "COUNTRY": "USA", "LATITUDE": 38.578735152, "LONGITUDE": -109.563613143, "NAICS_CODE": "622110", "NAICS_DESC": "GENERAL MEDICAL AND SURGICAL HOSPITALS", "SOURCE": "https:\/\/opendata.utah.gov\/Health\/Utah-Hospital-Characteristics\/ierb-h3t5\/data", "SOURCEDATE": "2018\/08\/11", "VAL_METHOD": "IMAGERY", "VAL_DATE": "2014\/02\/10", "WEBSITE": "http:\/\/www.amhmoab.org", "STATE_ID": "NOT AVAILABLE", "ALT_NAME": "NOT AVAILABLE", "ST_FIPS": "49", "OWNER": "NON-PROFIT", "TTL_STAFF": -999, "BEDS": 19, "TRAUMA": "NOT AVAILABLE", "HELIPAD": "N" }, "geometry": { "type": "Point", "coordinates": [ -109.563613143000211, 38.57873515200005 ] } },
{ "type": "Feature", "properties": { "FID": 11, "OBJECTID": 1714, "ID": "0166184097", "NAME": "CENTER FOR CHANGE", "ADDRESS": "1790 NORTH STATE STREET", "CITY": "OREM", "STATE": "UT", "ZIP": "84097", "ZIP4": "NOT AVAILABLE", "TELEPHONE": "(801) 224-8255", "TYPE": "PSYCHIATRIC", "STATUS": "OPEN", "POPULATION": -999, "COUNTY": "UTAH", "COUNTYFIPS": "49049", "COUNTRY": "USA", "LATITUDE": 40.329934553999998, "LONGITUDE": -111.708427644, "NAICS_CODE": "622210", "NAICS_DESC": "PSYCHIATRIC AND SUBSTANCE ABUSE HOSPITALS", "SOURCE": "https:\/\/opendata.utah.gov\/Health\/Utah-Hospital-Characteristics\/ierb-h3t5\/data", "SOURCEDATE": "2018\/08\/11", "VAL_METHOD": "IMAGERY\/OTHER", "VAL_DATE": "2015\/06\/01", "WEBSITE": "NOT AVAILABLE", "STATE_ID": "NOT AVAILABLE", "ALT_NAME": "NOT AVAILABLE", "ST_FIPS": "49", "OWNER": "NOT AVAILABLE", "TTL_STAFF": -999, "BEDS": -999, "TRAUMA": "NOT AVAILABLE", "HELIPAD": "N" }, "geometry": { "type": "Point", "coordinates": [ -111.708427643999784, 40.329934554 ] } },
{ "type": "Feature", "properties": { "FID": 12, "OBJECTID": 1745, "ID": "0014784148", "NAME": "GEORGE E. WAHLEN DEPARTMENT OF VETERANS AFFAIRS MEDICAL CENTER", "ADDRESS": "500 FOOTHILL DR", "CITY": "SALT LAKE CITY", "STATE": "UT", "ZIP": "84148", "ZIP4": "NOT AVAILABLE", "TELEPHONE": "(801) 582-1565", "TYPE": "MILITARY", "STATUS": "OPEN", "POPULATION": -999, "COUNTY": "SALT LAKE", "COUNTYFIPS": "49035", "COUNTRY": "USA", "LATITUDE": 40.757397245000099, "LONGITUDE": -111.840553963, "NAICS_CODE": "622110", "NAICS_DESC": "GENERAL MEDICAL AND SURGICAL HOSPITALS", "SOURCE": "https:\/\/www.va.gov\/directory\/guide\/allstate.asp", "SOURCEDATE": "2018\/09\/26", "VAL_METHOD": "IMAGERY\/OTHER", "VAL_DATE": "2015\/05\/29", "WEBSITE": "http:\/\/www.saltlakecity.va.gov\/", "STATE_ID": "NOT AVAILABLE", "ALT_NAME": "NOT AVAILABLE", "ST_FIPS": "49", "OWNER": "GOVERNMENT - FEDERAL", "TTL_STAFF": -999, "BEDS": -999, "TRAUMA": "NOT AVAILABLE", "HELIPAD": "Y" }, "geometry": { "type": "Point", "coordinates": [ -111.840553963000033, 40.757397245000028 ] } },
{ "type": "Feature", "properties": { "FID": 13, "OBJECTID": 4466, "ID": "0166884143", "NAME": "LDS HOSPITAL", "ADDRESS": "324 8TH AVENUE", "CITY": "SALT LAKE CITY", "STATE": "UT", "ZIP": "84143", "ZIP4": "NOT AVAILABLE", "TELEPHONE": "(801) 408-1100", "TYPE": "GENERAL ACUTE CARE", "STATUS": "OPEN", "POPULATION": 241, "COUNTY": "SALT LAKE", "COUNTYFIPS": "49035", "COUNTRY": "USA", "LATITUDE": 40.778223787999998, "LONGITUDE": -111.87982187599999, "NAICS_CODE": "622110", "NAICS_DESC": "GENERAL MEDICAL AND SURGICAL HOSPITALS", "SOURCE": "https:\/\/opendata.utah.gov\/Health\/Utah-Hospital-Characteristics\/ierb-h3t5\/data", "SOURCEDATE": "2018\/08\/11", "VAL_METHOD": "IMAGERY\/OTHER", "VAL_DATE": "2015\/06\/01", "WEBSITE": "https:\/\/intermountainhealthcare.org\/locations\/lds-hospital\/", "STATE_ID": "NOT AVAILABLE", "ALT_NAME": "NOT AVAILABLE", "ST_FIPS": "49", "OWNER": "NON-PROFIT", "TTL_STAFF": -999, "BEDS": 241, "TRAUMA": "NOT AVAILABLE", "HELIPAD": "Y" }, "geometry": { "type": "Point", "coordinates": [ -111.879821876000264, 40.778223788 ] } },
{ "type": "Feature", "properties": { "FID": 14, "OBJECTID": 2333, "ID": "0004884078", "NAME": "ASHLEY VALLEY MEDICAL CENTER", "ADDRESS": "151 WEST 200 NORTH", "CITY": "VERNAL", "STATE": "UT", "ZIP": "84078", "ZIP4": "NOT AVAILABLE", "TELEPHONE": "(435) 789-3342", "TYPE": "GENERAL ACUTE CARE", "STATUS": "OPEN", "POPULATION": 39, "COUNTY": "UINTAH", "COUNTYFIPS": "49047", "COUNTRY": "USA", "LATITUDE": 40.45779908, "LONGITUDE": -109.531584778, "NAICS_CODE": "622110", "NAICS_DESC": "GENERAL MEDICAL AND SURGICAL HOSPITALS", "SOURCE": "https:\/\/opendata.utah.gov\/Health\/Utah-Hospital-Characteristics\/ierb-h3t5\/data", "SOURCEDATE": "2018\/08\/11", "VAL_METHOD": "IMAGERY", "VAL_DATE": "2013\/12\/06", "WEBSITE": "http:\/\/www.ashleyregional.com", "STATE_ID": "NOT AVAILABLE", "ALT_NAME": "NOT AVAILABLE", "ST_FIPS": "49", "OWNER": "PROPRIETARY", "TTL_STAFF": -999, "BEDS": 39, "TRAUMA": "LEVEL IV", "HELIPAD": "Y" }, "geometry": { "type": "Point", "coordinates": [ -109.531584777999683, 40.45779908 ] } },
{ "type": "Feature", "properties": { "FID": 15, "OBJECTID": 2336, "ID": "0001284604", "NAME": "UTAH VALLEY REGIONAL MEDICAL CENTER", "ADDRESS": "1034 NORTH 500 WEST", "CITY": "PROVO", "STATE": "UT", "ZIP": "84604", "ZIP4": "NOT AVAILABLE", "TELEPHONE": "(801) 357-7850", "TYPE": "GENERAL ACUTE CARE", "STATUS": "OPEN", "POPULATION": 367, "COUNTY": "UTAH", "COUNTYFIPS": "49049", "COUNTRY": "USA", "LATITUDE": 40.247921016000099, "LONGITUDE": -111.665807884, "NAICS_CODE": "622110", "NAICS_DESC": "GENERAL MEDICAL AND SURGICAL HOSPITALS", "SOURCE": "https:\/\/opendata.utah.gov\/Health\/Utah-Hospital-Characteristics\/ierb-h3t5\/data", "SOURCEDATE": "2018\/08\/11", "VAL_METHOD": "IMAGERY\/OTHER", "VAL_DATE": "2014\/03\/12", "WEBSITE": "http:\/\/www.utahvalleyregional.org", "STATE_ID": "NOT AVAILABLE", "ALT_NAME": "NOT AVAILABLE", "ST_FIPS": "49", "OWNER": "NON-PROFIT", "TTL_STAFF": -999, "BEDS": 367, "TRAUMA": "LEVEL II", "HELIPAD": "Y" }, "geometry": { "type": "Point", "coordinates": [ -111.66580788400006, 40.247921016000021 ] } },
{ "type": "Feature", "properties": { "FID": 16, "OBJECTID": 3007, "ID": "0001084721", "NAME": "VALLEY VIEW MEDICAL CENTER", "ADDRESS": "1303 NORTH MAIN STREET", "CITY": "CEDAR CITY", "STATE": "UT", "ZIP": "84721", "ZIP4": "NOT AVAILABLE", "TELEPHONE": "(435) 868-5000", "TYPE": "GENERAL ACUTE CARE", "STATUS": "OPEN", "POPULATION": 48, "COUNTY": "IRON", "COUNTYFIPS": "49021", "COUNTRY": "USA", "LATITUDE": 37.699760362000099, "LONGITUDE": -113.066674869, "NAICS_CODE": "622110", "NAICS_DESC": "GENERAL MEDICAL AND SURGICAL HOSPITALS", "SOURCE": "https:\/\/opendata.utah.gov\/Health\/Utah-Hospital-Characteristics\/ierb-h3t5\/data", "SOURCEDATE": "2018\/08\/11", "VAL_METHOD": "IMAGERY\/OTHER", "VAL_DATE": "2014\/02\/10", "WEBSITE": "http:\/\/www.ihc.com", "STATE_ID": "NOT AVAILABLE", "ALT_NAME": "NOT AVAILABLE", "ST_FIPS": "49", "OWNER": "NON-PROFIT", "TTL_STAFF": -999, "BEDS": 48, "TRAUMA": "LEVEL IV", "HELIPAD": "Y" }, "geometry": { "type": "Point", "coordinates": [ -113.066674868999968, 37.699760362000085 ] } },
{ "type": "Feature", "properties": { "FID": 17, "OBJECTID": 3008, "ID": "0002484648", "NAME": "CENTRAL VALLEY MEDICAL CENTER", "ADDRESS": "48 WEST 1500 NORTH", "CITY": "NEPHI", "STATE": "UT", "ZIP": "84648", "ZIP4": "NOT AVAILABLE", "TELEPHONE": "(435) 623-3000", "TYPE": "CRITICAL ACCESS", "STATUS": "OPEN", "POPULATION": 25, "COUNTY": "JUAB", "COUNTYFIPS": "49023", "COUNTRY": "USA", "LATITUDE": 39.731462162000099, "LONGITUDE": -111.837740555, "NAICS_CODE": "622110", "NAICS_DESC": "GENERAL MEDICAL AND SURGICAL HOSPITALS", "SOURCE": "https:\/\/opendata.utah.gov\/Health\/Utah-Hospital-Characteristics\/ierb-h3t5\/data", "SOURCEDATE": "2018\/08\/11", "VAL_METHOD": "IMAGERY", "VAL_DATE": "2014\/02\/10", "WEBSITE": "http:\/\/www.cvmed.net", "STATE_ID": "NOT AVAILABLE", "ALT_NAME": "NOT AVAILABLE", "ST_FIPS": "49", "OWNER": "NON-PROFIT", "TTL_STAFF": -999, "BEDS": 25, "TRAUMA": "NOT AVAILABLE", "HELIPAD": "Y" }, "geometry": { "type": "Point", "coordinates": [ -111.837740554999627, 39.731462162000057 ] } },
{ "type": "Feature", "properties": { "FID": 18, "OBJECTID": 3025, "ID": "0004384066", "NAME": "UINTAH BASIN CARE AND REHABILITATION", "ADDRESS": "187 WEST LAGOON STREET", "CITY": "ROOSEVELT", "STATE": "UT", "ZIP": "84066", "ZIP4": "NOT AVAILABLE", "TELEPHONE": "(435) 722-2497", "TYPE": "REHABILITATION", "STATUS": "OPEN", "POPULATION": -999, "COUNTY": "DUCHESNE", "COUNTYFIPS": "49013", "COUNTRY": "USA", "LATITUDE": 40.298907377, "LONGITUDE": -109.994611058, "NAICS_CODE": "622310", "NAICS_DESC": "REHABILITATION HOSPITALS (EXCEPT ALCOHOLISM, DRUG ADDICTION)", "SOURCE": "https:\/\/opendata.utah.gov\/Health\/Utah-Hospital-Characteristics\/ierb-h3t5\/data", "SOURCEDATE": "2018\/08\/11", "VAL_METHOD": "IMAGERY", "VAL_DATE": "2014\/02\/12", "WEBSITE": "NOT AVAILABLE", "STATE_ID": "NOT AVAILABLE", "ALT_NAME": "NOT AVAILABLE", "ST_FIPS": "49", "OWNER": "NOT AVAILABLE", "TTL_STAFF": -999, "BEDS": -999, "TRAUMA": "NOT AVAILABLE", "HELIPAD": "N" }, "geometry": { "type": "Point", "coordinates": [ -109.994611057999649, 40.298907377000049 ] } },
{ "type": "Feature", "properties": { "FID": 19, "OBJECTID": 3026, "ID": "0001784010", "NAME": "BENCHMARK REGIONAL HOSPITAL", "ADDRESS": "592 WEST 1350 SOUTH", "CITY": "WOODS CROSS", "STATE": "UT", "ZIP": "84010", "ZIP4": "NOT AVAILABLE", "TELEPHONE": "(801) 299-5300", "TYPE": "PSYCHIATRIC", "STATUS": "OPEN", "POPULATION": 84, "COUNTY": "DAVIS", "COUNTYFIPS": "49011", "COUNTRY": "USA", "LATITUDE": 40.877763920000099, "LONGITUDE": -111.895520365, "NAICS_CODE": "622210", "NAICS_DESC": "PSYCHIATRIC AND SUBSTANCE ABUSE HOSPITALS", "SOURCE": "https:\/\/opendata.utah.gov\/Health\/Utah-Hospital-Characteristics\/ierb-h3t5\/data", "SOURCEDATE": "2018\/08\/11", "VAL_METHOD": "IMAGERY", "VAL_DATE": "2014\/02\/12", "WEBSITE": "http:\/\/www.bbhsnet.com\/", "STATE_ID": "NOT AVAILABLE", "ALT_NAME": "NOT AVAILABLE", "ST_FIPS": "49", "OWNER": "PROPRIETARY", "TTL_STAFF": -999, "BEDS": 84, "TRAUMA": "NOT AVAILABLE", "HELIPAD": "N" }, "geometry": { "type": "Point", "coordinates": [ -111.895520365000237, 40.877763920000056 ] } },
{ "type": "Feature", "properties": { "FID": 20, "OBJECTID": 3028, "ID": "0003884606", "NAME": "UTAH STATE HOSPITAL", "ADDRESS": "1300 EAST CENTER STREET", "CITY": "PROVO", "STATE": "UT", "ZIP": "84606", "ZIP4": "NOT AVAILABLE", "TELEPHONE": "(801) 344-4400", "TYPE": "PSYCHIATRIC", "STATUS": "OPEN", "POPULATION": 329, "COUNTY": "UTAH", "COUNTYFIPS": "49049", "COUNTRY": "USA", "LATITUDE": 40.234822508000001, "LONGITUDE": -111.63531813500001, "NAICS_CODE": "622210", "NAICS_DESC": "PSYCHIATRIC AND SUBSTANCE ABUSE HOSPITALS", "SOURCE": "https:\/\/opendata.utah.gov\/Health\/Utah-Hospital-Characteristics\/ierb-h3t5\/data", "SOURCEDATE": "2018\/08\/11", "VAL_METHOD": "IMAGERY", "VAL_DATE": "2014\/02\/10", "WEBSITE": "http:\/\/www.ush.utah.gov", "STATE_ID": "NOT AVAILABLE", "ALT_NAME": "NOT AVAILABLE", "ST_FIPS": "49", "OWNER": "GOVERNMENT - STATE", "TTL_STAFF": -999, "BEDS": 329, "TRAUMA": "NOT AVAILABLE", "HELIPAD": "N" }, "geometry": { "type": "Point", "coordinates": [ -111.635318135, 40.234822508 ] } },
{ "type": "Feature", "properties": { "FID": 21, "OBJECTID": 3031, "ID": "0003284094", "NAME": "HEALTH SOUTH REHABILITATION HOSPITAL", "ADDRESS": "8074 SOUTH 1300 EAST", "CITY": "SANDY", "STATE": "UT", "ZIP": "84094", "ZIP4": "NOT AVAILABLE", "TELEPHONE": "(801) 561-3400", "TYPE": "REHABILITATION", "STATUS": "OPEN", "POPULATION": 105, "COUNTY": "SALT LAKE", "COUNTYFIPS": "49035", "COUNTRY": "USA", "LATITUDE": 40.604820046, "LONGITUDE": -111.85478725599999, "NAICS_CODE": "622310", "NAICS_DESC": "REHABILITATION HOSPITALS (EXCEPT ALCOHOLISM, DRUG ADDICTION)", "SOURCE": "https:\/\/opendata.utah.gov\/Health\/Utah-Hospital-Characteristics\/ierb-h3t5\/data", "SOURCEDATE": "2018\/08\/11", "VAL_METHOD": "IMAGERY", "VAL_DATE": "2013\/12\/06", "WEBSITE": "http:\/\/www.healthsouthutah.com", "STATE_ID": "NOT AVAILABLE", "ALT_NAME": "NOT AVAILABLE", "ST_FIPS": "49", "OWNER": "PROPRIETARY", "TTL_STAFF": -999, "BEDS": 105, "TRAUMA": "NOT AVAILABLE", "HELIPAD": "N" }, "geometry": { "type": "Point", "coordinates": [ -111.854787256000307, 40.604820046000029 ] } },
{ "type": "Feature", "properties": { "FID": 22, "OBJECTID": 3037, "ID": "0005284047", "NAME": "HIGHLAND RIDGE HOSPITAL", "ADDRESS": "7309 SOUTH 180 WEST", "CITY": "MIDVALE", "STATE": "UT", "ZIP": "84047", "ZIP4": "NOT AVAILABLE", "TELEPHONE": "(801) 569-2153", "TYPE": "PSYCHIATRIC", "STATUS": "OPEN", "POPULATION": 53, "COUNTY": "SALT LAKE", "COUNTYFIPS": "49035", "COUNTRY": "USA", "LATITUDE": 40.617743142000101, "LONGITUDE": -111.89670948200001, "NAICS_CODE": "622210", "NAICS_DESC": "PSYCHIATRIC AND SUBSTANCE ABUSE HOSPITALS", "SOURCE": "https:\/\/opendata.utah.gov\/Health\/Utah-Hospital-Characteristics\/ierb-h3t5\/data", "SOURCEDATE": "2018\/08\/11", "VAL_METHOD": "IMAGERY", "VAL_DATE": "2014\/02\/10", "WEBSITE": "www.highlandridgehospital.com", "STATE_ID": "NOT AVAILABLE", "ALT_NAME": "NOT AVAILABLE", "ST_FIPS": "49", "OWNER": "PROPRIETARY", "TTL_STAFF": -999, "BEDS": 53, "TRAUMA": "NOT AVAILABLE", "HELIPAD": "N" }, "geometry": { "type": "Point", "coordinates": [ -111.896709481999935, 40.61774314200003 ] } },
{ "type": "Feature", "properties": { "FID": 23, "OBJECTID": 3039, "ID": "0002684634", "NAME": "GUNNISON VALLEY HOSPITAL", "ADDRESS": "64 EAST 100 NORTH STREET", "CITY": "GUNNISON", "STATE": "UT", "ZIP": "84634", "ZIP4": "NOT AVAILABLE", "TELEPHONE": "(435) 528-7246", "TYPE": "CRITICAL ACCESS", "STATUS": "OPEN", "POPULATION": 25, "COUNTY": "SANPETE", "COUNTYFIPS": "49039", "COUNTRY": "USA", "LATITUDE": 39.156255985000001, "LONGITUDE": -111.81648658899999, "NAICS_CODE": "622110", "NAICS_DESC": "GENERAL MEDICAL AND SURGICAL HOSPITALS", "SOURCE": "https:\/\/opendata.utah.gov\/Health\/Utah-Hospital-Characteristics\/ierb-h3t5\/data", "SOURCEDATE": "2018\/08\/11", "VAL_METHOD": "IMAGERY\/OTHER", "VAL_DATE": "2014\/02\/10", "WEBSITE": "http:\/\/www.gvhospital.org", "STATE_ID": "NOT AVAILABLE", "ALT_NAME": "NOT AVAILABLE", "ST_FIPS": "49", "OWNER": "GOVERNMENT - LOCAL", "TTL_STAFF": -999, "BEDS": 25, "TRAUMA": "NOT AVAILABLE", "HELIPAD": "Y" }, "geometry": { "type": "Point", "coordinates": [ -111.816486589000149, 39.156255985 ] } },
{ "type": "Feature", "properties": { "FID": 24, "OBJECTID": 3704, "ID": "0002884403", "NAME": "MCKAY-DEE HOSPITAL CENTER", "ADDRESS": "4401 HARRISON BOULEVARD", "CITY": "OGDEN", "STATE": "UT", "ZIP": "84403", "ZIP4": "NOT AVAILABLE", "TELEPHONE": "(801) 387-2800", "TYPE": "GENERAL ACUTE CARE", "STATUS": "OPEN", "POPULATION": 310, "COUNTY": "WEBER", "COUNTYFIPS": "49057", "COUNTRY": "USA", "LATITUDE": 41.1826576240001, "LONGITUDE": -111.95337328799999, "NAICS_CODE": "622110", "NAICS_DESC": "GENERAL MEDICAL AND SURGICAL HOSPITALS", "SOURCE": "https:\/\/opendata.utah.gov\/Health\/Utah-Hospital-Characteristics\/ierb-h3t5\/data", "SOURCEDATE": "2018\/08\/11", "VAL_METHOD": "IMAGERY", "VAL_DATE": "2014\/03\/12", "WEBSITE": "http:\/\/www.mckay-dee.org", "STATE_ID": "NOT AVAILABLE", "ALT_NAME": "NOT AVAILABLE", "ST_FIPS": "49", "OWNER": "NON-PROFIT", "TTL_STAFF": -999, "BEDS": 310, "TRAUMA": "LEVEL II", "HELIPAD": "Y" }, "geometry": { "type": "Point", "coordinates": [ -111.953373287999668, 41.182657624000029 ] } },
{ "type": "Feature", "properties": { "FID": 25, "OBJECTID": 3705, "ID": "0001384341", "NAME": "CACHE VALLEY SPECIALTY HOSPITAL", "ADDRESS": "2380 NORTH 400 EAST", "CITY": "NORTH LOGAN", "STATE": "UT", "ZIP": "84341", "ZIP4": "NOT AVAILABLE", "TELEPHONE": "(435) 713-9700", "TYPE": "GENERAL ACUTE CARE", "STATUS": "OPEN", "POPULATION": 15, "COUNTY": "CACHE", "COUNTYFIPS": "49005", "COUNTRY": "USA", "LATITUDE": 41.7755664680001, "LONGITUDE": -111.82123039, "NAICS_CODE": "622110", "NAICS_DESC": "GENERAL MEDICAL AND SURGICAL HOSPITALS", "SOURCE": "https:\/\/opendata.utah.gov\/Health\/Utah-Hospital-Characteristics\/ierb-h3t5\/data", "SOURCEDATE": "2018\/08\/11", "VAL_METHOD": "IMAGERY\/OTHER", "VAL_DATE": "2014\/03\/12", "WEBSITE": "http:\/\/cachevalleyhospital.com\/", "STATE_ID": "NOT AVAILABLE", "ALT_NAME": "NOT AVAILABLE", "ST_FIPS": "49", "OWNER": "PROPRIETARY", "TTL_STAFF": -999, "BEDS": 15, "TRAUMA": "LEVEL IV", "HELIPAD": "Y" }, "geometry": { "type": "Point", "coordinates": [ -111.821230389999755, 41.775566468000065 ] } },
{ "type": "Feature", "properties": { "FID": 26, "OBJECTID": 3716, "ID": "0001984003", "NAME": "AMERICAN FORK HOSPITAL", "ADDRESS": "170 NORTH 1100 EAST", "CITY": "AMERICAN FORK", "STATE": "UT", "ZIP": "84003", "ZIP4": "NOT AVAILABLE", "TELEPHONE": "(801) 855-3300", "TYPE": "GENERAL ACUTE CARE", "STATUS": "OPEN", "POPULATION": 88, "COUNTY": "UTAH", "COUNTYFIPS": "49049", "COUNTRY": "USA", "LATITUDE": 40.380291012000001, "LONGITUDE": -111.766599199, "NAICS_CODE": "622110", "NAICS_DESC": "GENERAL MEDICAL AND SURGICAL HOSPITALS", "SOURCE": "https:\/\/opendata.utah.gov\/Health\/Utah-Hospital-Characteristics\/ierb-h3t5\/data", "SOURCEDATE": "2018\/08\/11", "VAL_METHOD": "IMAGERY\/OTHER", "VAL_DATE": "2014\/03\/12", "WEBSITE": "http:\/\/www.intermountainhealthcare.org", "STATE_ID": "NOT AVAILABLE", "ALT_NAME": "NOT AVAILABLE", "ST_FIPS": "49", "OWNER": "NON-PROFIT", "TTL_STAFF": -999, "BEDS": 88, "TRAUMA": "LEVEL IV", "HELIPAD": "Y" }, "geometry": { "type": "Point", "coordinates": [ -111.766599199000197, 40.380291012000036 ] } },
{ "type": "Feature", "properties": { "FID": 27, "OBJECTID": 3718, "ID": "0000284081", "NAME": "COPPER HILLS YOUTH CENTER", "ADDRESS": "5899 WEST RIVENDELL DRIVE", "CITY": "WEST JORDAN", "STATE": "UT", "ZIP": "84081", "ZIP4": "NOT AVAILABLE", "TELEPHONE": "(800) 776-7116", "TYPE": "PSYCHIATRIC", "STATUS": "OPEN", "POPULATION": -999, "COUNTY": "SALT LAKE", "COUNTYFIPS": "49035", "COUNTRY": "USA", "LATITUDE": 40.588365925000097, "LONGITUDE": -112.031171489, "NAICS_CODE": "622210", "NAICS_DESC": "PSYCHIATRIC AND SUBSTANCE ABUSE HOSPITALS", "SOURCE": "https:\/\/opendata.utah.gov\/Health\/Utah-Hospital-Characteristics\/ierb-h3t5\/data", "SOURCEDATE": "2018\/08\/11", "VAL_METHOD": "IMAGERY", "VAL_DATE": "2014\/02\/10", "WEBSITE": "copperhillsyouthcenter.com\/", "STATE_ID": "NOT AVAILABLE", "ALT_NAME": "NOT AVAILABLE", "ST_FIPS": "49", "OWNER": "PROPRIETARY", "TTL_STAFF": -999, "BEDS": -999, "TRAUMA": "NOT AVAILABLE", "HELIPAD": "N" }, "geometry": { "type": "Point", "coordinates": [ -112.031171489000101, 40.588365925000033 ] } },
{ "type": "Feature", "properties": { "FID": 28, "OBJECTID": 3732, "ID": "0005084113", "NAME": "PRIMARY CHILDREN'S MEDICAL CENTER", "ADDRESS": "100 MARIO CAPECCHI DRIVE", "CITY": "SALT LAKE CITY", "STATE": "UT", "ZIP": "84113", "ZIP4": "NOT AVAILABLE", "TELEPHONE": "(801) 662-1000", "TYPE": "CHILDREN", "STATUS": "OPEN", "POPULATION": 289, "COUNTY": "SALT LAKE", "COUNTYFIPS": "49035", "COUNTRY": "USA", "LATITUDE": 40.771287264000101, "LONGITUDE": -111.83880469100001, "NAICS_CODE": "622110", "NAICS_DESC": "CHILDREN'S HOSPITALS, GENERAL", "SOURCE": "https:\/\/opendata.utah.gov\/Health\/Utah-Hospital-Characteristics\/ierb-h3t5\/data", "SOURCEDATE": "2018\/08\/11", "VAL_METHOD": "IMAGERY\/OTHER", "VAL_DATE": "2014\/03\/13", "WEBSITE": "http:\/\/www.intermountainhealthcare.org", "STATE_ID": "NOT AVAILABLE", "ALT_NAME": "NOT AVAILABLE", "ST_FIPS": "49", "OWNER": "NON-PROFIT", "TTL_STAFF": -999, "BEDS": 289, "TRAUMA": "LEVEL I", "HELIPAD": "Y" }, "geometry": { "type": "Point", "coordinates": [ -111.838804691000021, 40.771287264000044 ] } },
{ "type": "Feature", "properties": { "FID": 29, "OBJECTID": 3733, "ID": "0005884020", "NAME": "LONE PEAK HOSPITAL", "ADDRESS": "11925 S STATE ST", "CITY": "DRAPER", "STATE": "UT", "ZIP": "84020", "ZIP4": "NOT AVAILABLE", "TELEPHONE": "(801) 545-8000", "TYPE": "GENERAL ACUTE CARE", "STATUS": "OPEN", "POPULATION": -999, "COUNTY": "SALT LAKE", "COUNTYFIPS": "49035", "COUNTRY": "USA", "LATITUDE": 40.536059873000099, "LONGITUDE": -111.889126062, "NAICS_CODE": "622110", "NAICS_DESC": "GENERAL MEDICAL AND SURGICAL HOSPITALS", "SOURCE": "https:\/\/opendata.utah.gov\/Health\/Utah-Hospital-Characteristics\/ierb-h3t5\/data", "SOURCEDATE": "2018\/08\/11", "VAL_METHOD": "IMAGERY", "VAL_DATE": "2013\/12\/05", "WEBSITE": "http:\/\/lonepeakhospital.com", "STATE_ID": "NOT AVAILABLE", "ALT_NAME": "NOT AVAILABLE", "ST_FIPS": "49", "OWNER": "NOT AVAILABLE", "TTL_STAFF": -999, "BEDS": -999, "TRAUMA": "NOT AVAILABLE", "HELIPAD": "Y" }, "geometry": { "type": "Point", "coordinates": [ -111.889126061999676, 40.536059873000028 ] } },
{ "type": "Feature", "properties": { "FID": 30, "OBJECTID": 3734, "ID": "0166484604", "NAME": "UTAH VALLEY SPECIALTY HOSPITAL", "ADDRESS": "306 WEST RIVER BEND LANE", "CITY": "PROVO", "STATE": "UT", "ZIP": "84604", "ZIP4": "NOT AVAILABLE", "TELEPHONE": "(801) 226-8880", "TYPE": "LONG TERM CARE", "STATUS": "OPEN", "POPULATION": -999, "COUNTY": "UTAH", "COUNTYFIPS": "49049", "COUNTRY": "USA", "LATITUDE": 40.305433956999998, "LONGITUDE": -111.662583058, "NAICS_CODE": "622310", "NAICS_DESC": "SPECIALTY (EXCEPT PSYCHIATRIC AND SUBSTANCE ABUSE) HOSPITALS", "SOURCE": "https:\/\/opendata.utah.gov\/Health\/Utah-Hospital-Characteristics\/ierb-h3t5\/data", "SOURCEDATE": "2018\/08\/11", "VAL_METHOD": "IMAGERY\/OTHER", "VAL_DATE": "2015\/06\/01", "WEBSITE": "NOT AVAILABLE", "STATE_ID": "NOT AVAILABLE", "ALT_NAME": "NOT AVAILABLE", "ST_FIPS": "49", "OWNER": "NOT AVAILABLE", "TTL_STAFF": -999, "BEDS": -999, "TRAUMA": "NOT AVAILABLE", "HELIPAD": "N" }, "geometry": { "type": "Point", "coordinates": [ -111.662583058000209, 40.305433957000048 ] } },
{ "type": "Feature", "properties": { "FID": 31, "OBJECTID": 3735, "ID": "0167284106", "NAME": "SALT LAKE BEHAVIORAL HEALTH", "ADDRESS": "3802 SOUTH 700 EAST", "CITY": "SALT LAKE CITY", "STATE": "UT", "ZIP": "84106", "ZIP4": "NOT AVAILABLE", "TELEPHONE": "(801) 264-6000", "TYPE": "PSYCHIATRIC", "STATUS": "OPEN", "POPULATION": -999, "COUNTY": "SALT LAKE", "COUNTYFIPS": "49035", "COUNTRY": "USA", "LATITUDE": 40.688087704000097, "LONGITUDE": -111.872813635, "NAICS_CODE": "622210", "NAICS_DESC": "PSYCHIATRIC AND SUBSTANCE ABUSE HOSPITALS", "SOURCE": "https:\/\/opendata.utah.gov\/Health\/Utah-Hospital-Characteristics\/ierb-h3t5\/data", "SOURCEDATE": "2018\/08\/11", "VAL_METHOD": "IMAGERY\/OTHER", "VAL_DATE": "2015\/06\/01", "WEBSITE": "NOT AVAILABLE", "STATE_ID": "NOT AVAILABLE", "ALT_NAME": "NOT AVAILABLE", "ST_FIPS": "49", "OWNER": "NOT AVAILABLE", "TTL_STAFF": -999, "BEDS": -999, "TRAUMA": "NOT AVAILABLE", "HELIPAD": "N" }, "geometry": { "type": "Point", "coordinates": [ -111.872813635000057, 40.688087704000075 ] } },
{ "type": "Feature", "properties": { "FID": 32, "OBJECTID": 3736, "ID": "0007184075", "NAME": "VIEWPOINT ASSESSMENT CENTER", "ADDRESS": "2732 WEST 2700 SOUTH", "CITY": "SYRACUSE", "STATE": "UT", "ZIP": "84075", "ZIP4": "NOT AVAILABLE", "TELEPHONE": "(855) 290-9682", "TYPE": "PSYCHIATRIC", "STATUS": "OPEN", "POPULATION": -999, "COUNTY": "DAVIS", "COUNTYFIPS": "49011", "COUNTRY": "USA", "LATITUDE": 41.075408078000102, "LONGITUDE": -112.079206392, "NAICS_CODE": "622210", "NAICS_DESC": "PSYCHIATRIC AND SUBSTANCE ABUSE HOSPITALS", "SOURCE": "https:\/\/opendata.utah.gov\/Health\/Utah-Hospital-Characteristics\/ierb-h3t5\/data", "SOURCEDATE": "2018\/08\/11", "VAL_METHOD": "IMAGERY\/OTHER", "VAL_DATE": "2017\/02\/24", "WEBSITE": "http:\/\/www.viewpointcenter.com", "STATE_ID": "NOT AVAILABLE", "ALT_NAME": "NOT AVAILABLE", "ST_FIPS": "49", "OWNER": "PROPRIETARY", "TTL_STAFF": -999, "BEDS": -999, "TRAUMA": "NOT AVAILABLE", "HELIPAD": "N" }, "geometry": { "type": "Point", "coordinates": [ -112.07920639199952, 41.075408078000024 ] } },
{ "type": "Feature", "properties": { "FID": 33, "OBJECTID": 3737, "ID": "0002184624", "NAME": "DELTA COMMUNITY MEDICAL CENTER", "ADDRESS": "126 SOUTH WHITE SAGE AVENUE", "CITY": "DELTA", "STATE": "UT", "ZIP": "84624", "ZIP4": "NOT AVAILABLE", "TELEPHONE": "(435) 864-5591", "TYPE": "CRITICAL ACCESS", "STATUS": "OPEN", "POPULATION": 18, "COUNTY": "MILLARD", "COUNTYFIPS": "49027", "COUNTRY": "USA", "LATITUDE": 39.350051766999997, "LONGITUDE": -112.561095825, "NAICS_CODE": "622110", "NAICS_DESC": "GENERAL MEDICAL AND SURGICAL HOSPITALS", "SOURCE": "https:\/\/opendata.utah.gov\/Health\/Utah-Hospital-Characteristics\/ierb-h3t5\/data", "SOURCEDATE": "2018\/08\/11", "VAL_METHOD": "IMAGERY", "VAL_DATE": "2014\/02\/10", "WEBSITE": "http:\/\/www.ihc.com", "STATE_ID": "NOT AVAILABLE", "ALT_NAME": "NOT AVAILABLE", "ST_FIPS": "49", "OWNER": "NON-PROFIT", "TTL_STAFF": -999, "BEDS": 18, "TRAUMA": "LEVEL V", "HELIPAD": "Y" }, "geometry": { "type": "Point", "coordinates": [ -112.561095825000251, 39.350051767000018 ] } },
{ "type": "Feature", "properties": { "FID": 34, "OBJECTID": 3738, "ID": "0001184032", "NAME": "HEBER VALLEY MEDICAL CENTER", "ADDRESS": "1485 UNITED STATES HIGHWAY 40", "CITY": "HEBER", "STATE": "UT", "ZIP": "84032", "ZIP4": "NOT AVAILABLE", "TELEPHONE": "(435) 654-2500", "TYPE": "CRITICAL ACCESS", "STATUS": "OPEN", "POPULATION": 19, "COUNTY": "WASATCH", "COUNTYFIPS": "49051", "COUNTRY": "USA", "LATITUDE": 40.490005086000103, "LONGITUDE": -111.406201065, "NAICS_CODE": "622110", "NAICS_DESC": "GENERAL MEDICAL AND SURGICAL HOSPITALS", "SOURCE": "https:\/\/opendata.utah.gov\/Health\/Utah-Hospital-Characteristics\/ierb-h3t5\/data", "SOURCEDATE": "2018\/08\/11", "VAL_METHOD": "IMAGERY", "VAL_DATE": "2014\/03\/12", "WEBSITE": "http:\/\/www.ihc.com", "STATE_ID": "NOT AVAILABLE", "ALT_NAME": "NOT AVAILABLE", "ST_FIPS": "49", "OWNER": "NON-PROFIT", "TTL_STAFF": -999, "BEDS": 19, "TRAUMA": "LEVEL V", "HELIPAD": "Y" }, "geometry": { "type": "Point", "coordinates": [ -111.406201064999522, 40.490005086000025 ] } },
{ "type": "Feature", "properties": { "FID": 35, "OBJECTID": 3744, "ID": "0004584647", "NAME": "SANPETE VALLEY HOSPITAL", "ADDRESS": "1100 SOUTH MEDICAL DRIVE", "CITY": "MOUNT PLEASANT", "STATE": "UT", "ZIP": "84647", "ZIP4": "NOT AVAILABLE", "TELEPHONE": "(435) 462-2441", "TYPE": "CRITICAL ACCESS", "STATUS": "OPEN", "POPULATION": 18, "COUNTY": "SANPETE", "COUNTYFIPS": "49039", "COUNTRY": "USA", "LATITUDE": 39.5312366900001, "LONGITUDE": -111.461095077, "NAICS_CODE": "622110", "NAICS_DESC": "GENERAL MEDICAL AND SURGICAL HOSPITALS", "SOURCE": "https:\/\/opendata.utah.gov\/Health\/Utah-Hospital-Characteristics\/ierb-h3t5\/data", "SOURCEDATE": "2018\/08\/11", "VAL_METHOD": "IMAGERY\/OTHER", "VAL_DATE": "2014\/02\/10", "WEBSITE": "http:\/\/www.intermountainhealthcare.com", "STATE_ID": "NOT AVAILABLE", "ALT_NAME": "NOT AVAILABLE", "ST_FIPS": "49", "OWNER": "NON-PROFIT", "TTL_STAFF": -999, "BEDS": 18, "TRAUMA": "LEVEL IV", "HELIPAD": "Y" }, "geometry": { "type": "Point", "coordinates": [ -111.461095077000081, 39.531236690000057 ] } },
{ "type": "Feature", "properties": { "FID": 36, "OBJECTID": 7102, "ID": "0000884741", "NAME": "KANE COUNTY HOSPITAL", "ADDRESS": "355 NORTH MAIN STREET", "CITY": "KANAB", "STATE": "UT", "ZIP": "84741", "ZIP4": "NOT AVAILABLE", "TELEPHONE": "(435) 644-5811", "TYPE": "CRITICAL ACCESS", "STATUS": "OPEN", "POPULATION": -999, "COUNTY": "KANE", "COUNTYFIPS": "49025", "COUNTRY": "USA", "LATITUDE": 37.054457251000002, "LONGITUDE": -112.529508987, "NAICS_CODE": "622110", "NAICS_DESC": "GENERAL MEDICAL AND SURGICAL HOSPITALS", "SOURCE": "https:\/\/opendata.utah.gov\/Health\/Utah-Hospital-Characteristics\/ierb-h3t5\/data", "SOURCEDATE": "2018\/08\/11", "VAL_METHOD": "IMAGERY\/OTHER", "VAL_DATE": "2014\/02\/10", "WEBSITE": "http:\/\/www.kanecountyhospital.net", "STATE_ID": "NOT AVAILABLE", "ALT_NAME": "NOT AVAILABLE", "ST_FIPS": "49", "OWNER": "GOVERNMENT - DISTRICT\/AUTHORITY", "TTL_STAFF": -999, "BEDS": -999, "TRAUMA": "NOT AVAILABLE", "HELIPAD": "Y" }, "geometry": { "type": "Point", "coordinates": [ -112.529508986999616, 37.054457251000017 ] } },
{ "type": "Feature", "properties": { "FID": 37, "OBJECTID": 7111, "ID": "0004684701", "NAME": "SEVIER VALLEY MEDICAL CENTER", "ADDRESS": "1000 NORTH MAIN STREET", "CITY": "RICHFIELD", "STATE": "UT", "ZIP": "84701", "ZIP4": "NOT AVAILABLE", "TELEPHONE": "(435) 893-4100", "TYPE": "GENERAL ACUTE CARE", "STATUS": "OPEN", "POPULATION": 27, "COUNTY": "SEVIER", "COUNTYFIPS": "49041", "COUNTRY": "USA", "LATITUDE": 38.782700649, "LONGITUDE": -112.083582522, "NAICS_CODE": "622110", "NAICS_DESC": "GENERAL MEDICAL AND SURGICAL HOSPITALS", "SOURCE": "https:\/\/opendata.utah.gov\/Health\/Utah-Hospital-Characteristics\/ierb-h3t5\/data", "SOURCEDATE": "2018\/08\/11", "VAL_METHOD": "IMAGERY", "VAL_DATE": "2014\/02\/10", "WEBSITE": "http:\/\/www.intermountain.com", "STATE_ID": "NOT AVAILABLE", "ALT_NAME": "NOT AVAILABLE", "ST_FIPS": "49", "OWNER": "NON-PROFIT", "TTL_STAFF": -999, "BEDS": 27, "TRAUMA": "NOT AVAILABLE", "HELIPAD": "Y" }, "geometry": { "type": "Point", "coordinates": [ -112.083582522000015, 38.782700649000063 ] } },
{ "type": "Feature", "properties": { "FID": 38, "OBJECTID": 7112, "ID": "0004784074", "NAME": "MOUNTAIN WEST MEDICAL CENTER", "ADDRESS": "2055 NORTH MAIN STREET", "CITY": "TOOELE", "STATE": "UT", "ZIP": "84074", "ZIP4": "NOT AVAILABLE", "TELEPHONE": "(435) 843-3600", "TYPE": "GENERAL ACUTE CARE", "STATUS": "OPEN", "POPULATION": 31, "COUNTY": "TOOELE", "COUNTYFIPS": "49045", "COUNTRY": "USA", "LATITUDE": 40.566737226000001, "LONGITUDE": -112.297260143, "NAICS_CODE": "622110", "NAICS_DESC": "GENERAL MEDICAL AND SURGICAL HOSPITALS", "SOURCE": "https:\/\/opendata.utah.gov\/Health\/Utah-Hospital-Characteristics\/ierb-h3t5\/data", "SOURCEDATE": "2018\/08\/11", "VAL_METHOD": "IMAGERY", "VAL_DATE": "2013\/12\/06", "WEBSITE": "http:\/\/www.mountainwestmc.com", "STATE_ID": "NOT AVAILABLE", "ALT_NAME": "NOT AVAILABLE", "ST_FIPS": "49", "OWNER": "PROPRIETARY", "TTL_STAFF": -999, "BEDS": 31, "TRAUMA": "NOT AVAILABLE", "HELIPAD": "Y" }, "geometry": { "type": "Point", "coordinates": [ -112.297260142999662, 40.56673722600005 ] } },
{ "type": "Feature", "properties": { "FID": 39, "OBJECTID": 6028, "ID": "0000184010", "NAME": "SOUTH DAVIS COMMUNITY HOSPITAL", "ADDRESS": "401 SOUTH 400 EAST", "CITY": "BOUNTIFUL", "STATE": "UT", "ZIP": "84010", "ZIP4": "NOT AVAILABLE", "TELEPHONE": "(801) 295-2361", "TYPE": "LONG TERM CARE", "STATUS": "OPEN", "POPULATION": 176, "COUNTY": "DAVIS", "COUNTYFIPS": "49011", "COUNTRY": "USA", "LATITUDE": 40.88500135, "LONGITUDE": -111.871796941, "NAICS_CODE": "622310", "NAICS_DESC": "SPECIALTY (EXCEPT PSYCHIATRIC AND SUBSTANCE ABUSE) HOSPITALS", "SOURCE": "https:\/\/opendata.utah.gov\/Health\/Utah-Hospital-Characteristics\/ierb-h3t5\/data", "SOURCEDATE": "2018\/08\/11", "VAL_METHOD": "IMAGERY\/OTHER", "VAL_DATE": "2014\/02\/10", "WEBSITE": "http:\/\/www.sdch.com", "STATE_ID": "NOT AVAILABLE", "ALT_NAME": "NOT AVAILABLE", "ST_FIPS": "49", "OWNER": "NON-PROFIT", "TTL_STAFF": -999, "BEDS": 176, "TRAUMA": "NOT AVAILABLE", "HELIPAD": "N" }, "geometry": { "type": "Point", "coordinates": [ -111.871796940999815, 40.885001349999989 ] } },
{ "type": "Feature", "properties": { "FID": 40, "OBJECTID": 6029, "ID": "0001684041", "NAME": "DAVIS HOSPITAL AND MEDICAL CENTER", "ADDRESS": "1600 WEST ANTELOPE DRIVE", "CITY": "LAYTON", "STATE": "UT", "ZIP": "84041", "ZIP4": "NOT AVAILABLE", "TELEPHONE": "(801) 807-1000", "TYPE": "GENERAL ACUTE CARE", "STATUS": "OPEN", "POPULATION": 200, "COUNTY": "DAVIS", "COUNTYFIPS": "49011", "COUNTRY": "USA", "LATITUDE": 41.091045155000103, "LONGITUDE": -111.99567306900001, "NAICS_CODE": "622110", "NAICS_DESC": "GENERAL MEDICAL AND SURGICAL HOSPITALS", "SOURCE": "https:\/\/opendata.utah.gov\/Health\/Utah-Hospital-Characteristics\/ierb-h3t5\/data", "SOURCEDATE": "2018\/08\/11", "VAL_METHOD": "IMAGERY\/OTHER", "VAL_DATE": "2013\/12\/05", "WEBSITE": "http:\/\/www.davishospital.com", "STATE_ID": "NOT AVAILABLE", "ALT_NAME": "NOT AVAILABLE", "ST_FIPS": "49", "OWNER": "PROPRIETARY", "TTL_STAFF": -999, "BEDS": 200, "TRAUMA": "NOT AVAILABLE", "HELIPAD": "Y" }, "geometry": { "type": "Point", "coordinates": [ -111.995673068999793, 41.091045155000096 ] } },
{ "type": "Feature", "properties": { "FID": 41, "OBJECTID": 6056, "ID": "0005984065", "NAME": "RIVERTON HOSPITAL", "ADDRESS": "3741 WEST 12600 SOUTH", "CITY": "RIVERTON", "STATE": "UT", "ZIP": "84065", "ZIP4": "NOT AVAILABLE", "TELEPHONE": "(801) 285-4000", "TYPE": "GENERAL ACUTE CARE", "STATUS": "OPEN", "POPULATION": 92, "COUNTY": "SALT LAKE", "COUNTYFIPS": "49035", "COUNTRY": "USA", "LATITUDE": 40.520397473000102, "LONGITUDE": -111.97991419, "NAICS_CODE": "622110", "NAICS_DESC": "GENERAL MEDICAL AND SURGICAL HOSPITALS", "SOURCE": "https:\/\/opendata.utah.gov\/Health\/Utah-Hospital-Characteristics\/ierb-h3t5\/data", "SOURCEDATE": "2018\/08\/11", "VAL_METHOD": "IMAGERY", "VAL_DATE": "2014\/02\/10", "WEBSITE": "http:\/\/www.intermountainhealthcare.org\/", "STATE_ID": "NOT AVAILABLE", "ALT_NAME": "NOT AVAILABLE", "ST_FIPS": "49", "OWNER": "NON-PROFIT", "TTL_STAFF": -999, "BEDS": 92, "TRAUMA": "NOT AVAILABLE", "HELIPAD": "Y" }, "geometry": { "type": "Point", "coordinates": [ -111.979914190000272, 40.520397473000045 ] } },
{ "type": "Feature", "properties": { "FID": 42, "OBJECTID": 6058, "ID": "0167084103", "NAME": "PROMISE HOSPITAL OF SALT LAKE", "ADDRESS": "8TH AVENUE C STREET", "CITY": "SALT LAKE CITY", "STATE": "UT", "ZIP": "84103", "ZIP4": "NOT AVAILABLE", "TELEPHONE": "(801) 408-7109", "TYPE": "LONG TERM CARE", "STATUS": "OPEN", "POPULATION": 41, "COUNTY": "SALT LAKE", "COUNTYFIPS": "49035", "COUNTRY": "USA", "LATITUDE": 40.779317676000097, "LONGITUDE": -111.87974298100001, "NAICS_CODE": "622310", "NAICS_DESC": "SPECIALTY (EXCEPT PSYCHIATRIC AND SUBSTANCE ABUSE) HOSPITALS", "SOURCE": "https:\/\/opendata.utah.gov\/Health\/Utah-Hospital-Characteristics\/ierb-h3t5\/data", "SOURCEDATE": "2018\/08\/11", "VAL_METHOD": "IMAGERY\/OTHER", "VAL_DATE": "2015\/06\/01", "WEBSITE": "http:\/\/www.promise-saltlake.com\/", "STATE_ID": "NOT AVAILABLE", "ALT_NAME": "NOT AVAILABLE", "ST_FIPS": "49", "OWNER": "PROPRIETARY", "TTL_STAFF": -999, "BEDS": 41, "TRAUMA": "NOT AVAILABLE", "HELIPAD": "Y" }, "geometry": { "type": "Point", "coordinates": [ -111.879742980999609, 40.779317676000069 ] } },
{ "type": "Feature", "properties": { "FID": 43, "OBJECTID": 6059, "ID": "0007284107", "NAME": "LANDMARK HOSPITAL OF SALT LAKE CITY", "ADDRESS": "4252 S BIRKHILL BLVD", "CITY": "MURRAY", "STATE": "UT", "ZIP": "84107", "ZIP4": "NOT AVAILABLE", "TELEPHONE": "(801) 268-5400", "TYPE": "LONG TERM CARE", "STATUS": "OPEN", "POPULATION": 38, "COUNTY": "SALT LAKE", "COUNTYFIPS": "49035", "COUNTRY": "USA", "LATITUDE": 40.679541466000003, "LONGITUDE": -111.893282361, "NAICS_CODE": "622310", "NAICS_DESC": "SPECIALTY (EXCEPT PSYCHIATRIC AND SUBSTANCE ABUSE) HOSPITALS", "SOURCE": "https:\/\/opendata.utah.gov\/Health\/Utah-Hospital-Characteristics\/ierb-h3t5\/data", "SOURCEDATE": "2018\/08\/11", "VAL_METHOD": "IMAGERY", "VAL_DATE": "2017\/02\/24", "WEBSITE": "http:\/\/www.landmarkhospitals.com\/utah.aspx", "STATE_ID": "NOT AVAILABLE", "ALT_NAME": "NOT AVAILABLE", "ST_FIPS": "49", "OWNER": "PROPRIETARY", "TTL_STAFF": -999, "BEDS": 38, "TRAUMA": "NOT AVAILABLE", "HELIPAD": "N" }, "geometry": { "type": "Point", "coordinates": [ -111.89328236099999, 40.679541466 ] } },
{ "type": "Feature", "properties": { "FID": 44, "OBJECTID": 6061, "ID": "0000584535", "NAME": "SAN JUAN HOSPITAL", "ADDRESS": "380 WEST 100 NORTH", "CITY": "MONTICELLO", "STATE": "UT", "ZIP": "84535", "ZIP4": "NOT AVAILABLE", "TELEPHONE": "(435) 587-2116", "TYPE": "CRITICAL ACCESS", "STATUS": "OPEN", "POPULATION": 25, "COUNTY": "SAN JUAN", "COUNTYFIPS": "49037", "COUNTRY": "USA", "LATITUDE": 37.874468055000101, "LONGITUDE": -109.34986961200001, "NAICS_CODE": "622110", "NAICS_DESC": "GENERAL MEDICAL AND SURGICAL HOSPITALS", "SOURCE": "https:\/\/opendata.utah.gov\/Health\/Utah-Hospital-Characteristics\/ierb-h3t5\/data", "SOURCEDATE": "2018\/08\/11", "VAL_METHOD": "IMAGERY\/OTHER", "VAL_DATE": "2013\/12\/05", "WEBSITE": "http:\/\/sanjuanhealthservices.org\/", "STATE_ID": "NOT AVAILABLE", "ALT_NAME": "NOT AVAILABLE", "ST_FIPS": "49", "OWNER": "GOVERNMENT - DISTRICT\/AUTHORITY", "TTL_STAFF": -999, "BEDS": 25, "TRAUMA": "NOT AVAILABLE", "HELIPAD": "Y" }, "geometry": { "type": "Point", "coordinates": [ -109.349869612, 37.874468055000044 ] } },
{ "type": "Feature", "properties": { "FID": 45, "OBJECTID": 6515, "ID": "0001884405", "NAME": "OGDEN REGIONAL MEDICAL CENTER", "ADDRESS": "5475 SOUTH 500 EAST", "CITY": "OGDEN", "STATE": "UT", "ZIP": "84405", "ZIP4": "NOT AVAILABLE", "TELEPHONE": "(801) 479-2111", "TYPE": "GENERAL ACUTE CARE", "STATUS": "OPEN", "POPULATION": 167, "COUNTY": "WEBER", "COUNTYFIPS": "49057", "COUNTRY": "USA", "LATITUDE": 41.164377512999998, "LONGITUDE": -111.970389873, "NAICS_CODE": "622110", "NAICS_DESC": "GENERAL MEDICAL AND SURGICAL HOSPITALS", "SOURCE": "https:\/\/opendata.utah.gov\/Health\/Utah-Hospital-Characteristics\/ierb-h3t5\/data", "SOURCEDATE": "2018\/08\/11", "VAL_METHOD": "IMAGERY\/OTHER", "VAL_DATE": "2014\/03\/12", "WEBSITE": "http:\/\/www.ogdenregional.com", "STATE_ID": "NOT AVAILABLE", "ALT_NAME": "NOT AVAILABLE", "ST_FIPS": "49", "OWNER": "PROPRIETARY", "TTL_STAFF": -999, "BEDS": 167, "TRAUMA": "LEVEL II", "HELIPAD": "Y" }, "geometry": { "type": "Point", "coordinates": [ -111.970389873000201, 41.164377513 ] } },
{ "type": "Feature", "properties": { "FID": 46, "OBJECTID": 6517, "ID": "0000784770", "NAME": "DIXIE REGIONAL MEDICAL CENTER", "ADDRESS": "544 SOUTH 400 EAST (FLOOD ST)", "CITY": "SAINT GEORGE", "STATE": "UT", "ZIP": "84770", "ZIP4": "NOT AVAILABLE", "TELEPHONE": "(435) 251-1000", "TYPE": "GENERAL ACUTE CARE", "STATUS": "OPEN", "POPULATION": 261, "COUNTY": "WASHINGTON", "COUNTYFIPS": "49053", "COUNTRY": "USA", "LATITUDE": 37.099066320000098, "LONGITUDE": -113.57586463, "NAICS_CODE": "622110", "NAICS_DESC": "GENERAL MEDICAL AND SURGICAL HOSPITALS", "SOURCE": "https:\/\/opendata.utah.gov\/Health\/Utah-Hospital-Characteristics\/ierb-h3t5\/data", "SOURCEDATE": "2018\/08\/11", "VAL_METHOD": "IMAGERY", "VAL_DATE": "2014\/03\/12", "WEBSITE": "http:\/\/www.intermountainhealthcare.org", "STATE_ID": "NOT AVAILABLE", "ALT_NAME": "NOT AVAILABLE", "ST_FIPS": "49", "OWNER": "NON-PROFIT", "TTL_STAFF": -999, "BEDS": 261, "TRAUMA": "NOT AVAILABLE", "HELIPAD": "Y" }, "geometry": { "type": "Point", "coordinates": [ -113.575864630000268, 37.099066320000048 ] } },
{ "type": "Feature", "properties": { "FID": 47, "OBJECTID": 6518, "ID": "0004984790", "NAME": "DIXIE REGIONAL MEDICAL CENTER - RIVER ROAD CAMPUS", "ADDRESS": "1380 EAST MEDICAL CENTER DRIVE", "CITY": "SAINT GEORGE", "STATE": "UT", "ZIP": "84790", "ZIP4": "NOT AVAILABLE", "TELEPHONE": "(435) 251-1000", "TYPE": "GENERAL ACUTE CARE", "STATUS": "OPEN", "POPULATION": -999, "COUNTY": "WASHINGTON", "COUNTYFIPS": "49053", "COUNTRY": "USA", "LATITUDE": 37.097766939000103, "LONGITUDE": -113.553742817, "NAICS_CODE": "622110", "NAICS_DESC": "GENERAL MEDICAL AND SURGICAL HOSPITALS", "SOURCE": "https:\/\/opendata.utah.gov\/Health\/Utah-Hospital-Characteristics\/ierb-h3t5\/data", "SOURCEDATE": "2018\/08\/11", "VAL_METHOD": "IMAGERY", "VAL_DATE": "2014\/02\/10", "WEBSITE": "http:\/\/www.intermountainhealthcare.org", "STATE_ID": "NOT AVAILABLE", "ALT_NAME": "NOT AVAILABLE", "ST_FIPS": "49", "OWNER": "NON-PROFIT", "TTL_STAFF": -999, "BEDS": -999, "TRAUMA": "LEVEL III", "HELIPAD": "Y" }, "geometry": { "type": "Point", "coordinates": [ -113.553742817000114, 37.097766939000017 ] } },
{ "type": "Feature", "properties": { "FID": 48, "OBJECTID": 6523, "ID": "0004084341", "NAME": "LOGAN REGIONAL HOSPITAL", "ADDRESS": "500 EAST 1400 NORTH", "CITY": "LOGAN", "STATE": "UT", "ZIP": "84341", "ZIP4": "NOT AVAILABLE", "TELEPHONE": "(435) 716-1000", "TYPE": "GENERAL ACUTE CARE", "STATUS": "OPEN", "POPULATION": 135, "COUNTY": "CACHE", "COUNTYFIPS": "49005", "COUNTRY": "USA", "LATITUDE": 41.755680643000098, "LONGITUDE": -111.822183161, "NAICS_CODE": "622110", "NAICS_DESC": "GENERAL MEDICAL AND SURGICAL HOSPITALS", "SOURCE": "https:\/\/opendata.utah.gov\/Health\/Utah-Hospital-Characteristics\/ierb-h3t5\/data", "SOURCEDATE": "2018\/08\/11", "VAL_METHOD": "IMAGERY", "VAL_DATE": "2014\/02\/10", "WEBSITE": "http:\/\/www.loganregionalhospital.org", "STATE_ID": "NOT AVAILABLE", "ALT_NAME": "NOT AVAILABLE", "ST_FIPS": "49", "OWNER": "NON-PROFIT", "TTL_STAFF": -999, "BEDS": 135, "TRAUMA": "LEVEL III", "HELIPAD": "Y" }, "geometry": { "type": "Point", "coordinates": [ -111.822183161000083, 41.755680643000055 ] } },
{ "type": "Feature", "properties": { "FID": 49, "OBJECTID": 6524, "ID": "0004184501", "NAME": "CASTLEVIEW HOSPITAL", "ADDRESS": "300 NORTH HOSPITAL DRIVE", "CITY": "PRICE", "STATE": "UT", "ZIP": "84501", "ZIP4": "NOT AVAILABLE", "TELEPHONE": "(435) 637-4800", "TYPE": "GENERAL ACUTE CARE", "STATUS": "OPEN", "POPULATION": 49, "COUNTY": "CARBON", "COUNTYFIPS": "49007", "COUNTRY": "USA", "LATITUDE": 39.605167047000101, "LONGITUDE": -110.832940089, "NAICS_CODE": "622110", "NAICS_DESC": "GENERAL MEDICAL AND SURGICAL HOSPITALS", "SOURCE": "https:\/\/opendata.utah.gov\/Health\/Utah-Hospital-Characteristics\/ierb-h3t5\/data", "SOURCEDATE": "2018\/08\/11", "VAL_METHOD": "IMAGERY", "VAL_DATE": "2013\/12\/06", "WEBSITE": "http:\/\/www.castleviewhospital.net", "STATE_ID": "NOT AVAILABLE", "ALT_NAME": "NOT AVAILABLE", "ST_FIPS": "49", "OWNER": "PROPRIETARY", "TTL_STAFF": -999, "BEDS": 49, "TRAUMA": "NOT AVAILABLE", "HELIPAD": "Y" }, "geometry": { "type": "Point", "coordinates": [ -110.832940089000203, 39.605167047000045 ] } },
{ "type": "Feature", "properties": { "FID": 50, "OBJECTID": 6525, "ID": "0005584713", "NAME": "BEAVER VALLEY HOSPITAL", "ADDRESS": "1109 NORTH 100 WEST STREET", "CITY": "BEAVER", "STATE": "UT", "ZIP": "84713", "ZIP4": "NOT AVAILABLE", "TELEPHONE": "(435) 438-7100", "TYPE": "GENERAL ACUTE CARE", "STATUS": "OPEN", "POPULATION": 49, "COUNTY": "BEAVER", "COUNTYFIPS": "49001", "COUNTRY": "USA", "LATITUDE": 38.289149447000099, "LONGITUDE": -112.643858779, "NAICS_CODE": "622110", "NAICS_DESC": "GENERAL MEDICAL AND SURGICAL HOSPITALS", "SOURCE": "https:\/\/opendata.utah.gov\/Health\/Utah-Hospital-Characteristics\/ierb-h3t5\/data", "SOURCEDATE": "2018\/08\/11", "VAL_METHOD": "IMAGERY", "VAL_DATE": "2014\/02\/10", "WEBSITE": "http:\/\/www.beaverutah.net", "STATE_ID": "NOT AVAILABLE", "ALT_NAME": "NOT AVAILABLE", "ST_FIPS": "49", "OWNER": "GOVERNMENT - LOCAL", "TTL_STAFF": -999, "BEDS": 49, "TRAUMA": "NOT AVAILABLE", "HELIPAD": "Y" }, "geometry": { "type": "Point", "coordinates": [ -112.643858779, 38.289149447000078 ] } },
{ "type": "Feature", "properties": { "FID": 51, "OBJECTID": 6526, "ID": "0004284066", "NAME": "UINTAH BASIN MEDICAL CENTER", "ADDRESS": "250 WEST 300 NORTH", "CITY": "ROOSEVELT", "STATE": "UT", "ZIP": "84066", "ZIP4": "NOT AVAILABLE", "TELEPHONE": "(435) 722-4691", "TYPE": "GENERAL ACUTE CARE", "STATUS": "OPEN", "POPULATION": 124, "COUNTY": "DUCHESNE", "COUNTYFIPS": "49013", "COUNTRY": "USA", "LATITUDE": 40.304385035000102, "LONGITUDE": -109.996470346, "NAICS_CODE": "622110", "NAICS_DESC": "GENERAL MEDICAL AND SURGICAL HOSPITALS", "SOURCE": "https:\/\/opendata.utah.gov\/Health\/Utah-Hospital-Characteristics\/ierb-h3t5\/data", "SOURCEDATE": "2018\/08\/11", "VAL_METHOD": "IMAGERY", "VAL_DATE": "2014\/02\/10", "WEBSITE": "http:\/\/www.ubmc.org", "STATE_ID": "NOT AVAILABLE", "ALT_NAME": "NOT AVAILABLE", "ST_FIPS": "49", "OWNER": "NON-PROFIT", "TTL_STAFF": -999, "BEDS": 124, "TRAUMA": "LEVEL IV", "HELIPAD": "Y" }, "geometry": { "type": "Point", "coordinates": [ -109.996470345999668, 40.30438503500006 ] } },
{ "type": "Feature", "properties": { "FID": 52, "OBJECTID": 6527, "ID": "0001584010", "NAME": "LAKEVIEW HOSPITAL", "ADDRESS": "630 MEDICAL DRIVE", "CITY": "BOUNTIFUL", "STATE": "UT", "ZIP": "84010", "ZIP4": "NOT AVAILABLE", "TELEPHONE": "(801) 299-2200", "TYPE": "GENERAL ACUTE CARE", "STATUS": "OPEN", "POPULATION": 119, "COUNTY": "DAVIS", "COUNTYFIPS": "49011", "COUNTRY": "USA", "LATITUDE": 40.8859425200001, "LONGITUDE": -111.868820341, "NAICS_CODE": "622110", "NAICS_DESC": "GENERAL MEDICAL AND SURGICAL HOSPITALS", "SOURCE": "https:\/\/opendata.utah.gov\/Health\/Utah-Hospital-Characteristics\/ierb-h3t5\/data", "SOURCEDATE": "2018\/08\/11", "VAL_METHOD": "IMAGERY\/OTHER", "VAL_DATE": "2013\/12\/05", "WEBSITE": "http:\/\/www.lakeviewhospital.com", "STATE_ID": "NOT AVAILABLE", "ALT_NAME": "NOT AVAILABLE", "ST_FIPS": "49", "OWNER": "PROPRIETARY", "TTL_STAFF": -999, "BEDS": 119, "TRAUMA": "LEVEL III", "HELIPAD": "Y" }, "geometry": { "type": "Point", "coordinates": [ -111.868820340999761, 40.885942520000064 ] } },
{ "type": "Feature", "properties": { "FID": 53, "OBJECTID": 6529, "ID": "0000684651", "NAME": "MOUNTAIN VIEW HOSPITAL", "ADDRESS": "1000 EAST 100 NORTH (HWY198)", "CITY": "PAYSON", "STATE": "UT", "ZIP": "84651", "ZIP4": "NOT AVAILABLE", "TELEPHONE": "(801) 465-7000", "TYPE": "GENERAL ACUTE CARE", "STATUS": "OPEN", "POPULATION": 114, "COUNTY": "UTAH", "COUNTYFIPS": "49049", "COUNTRY": "USA", "LATITUDE": 40.044046034000097, "LONGITUDE": -111.714285327, "NAICS_CODE": "622110", "NAICS_DESC": "GENERAL MEDICAL AND SURGICAL HOSPITALS", "SOURCE": "https:\/\/opendata.utah.gov\/Health\/Utah-Hospital-Characteristics\/ierb-h3t5\/data", "SOURCEDATE": "2018\/08\/11", "VAL_METHOD": "IMAGERY", "VAL_DATE": "2014\/03\/12", "WEBSITE": "http:\/\/www.mvhpayson.com", "STATE_ID": "NOT AVAILABLE", "ALT_NAME": "NOT AVAILABLE", "ST_FIPS": "49", "OWNER": "PROPRIETARY", "TTL_STAFF": -999, "BEDS": 114, "TRAUMA": "LEVEL IV", "HELIPAD": "Y" }, "geometry": { "type": "Point", "coordinates": [ -111.714285326999885, 40.044046034000068 ] } },
{ "type": "Feature", "properties": { "FID": 54, "OBJECTID": 6531, "ID": "0002584057", "NAME": "OREM COMMUNITY HOSPITAL", "ADDRESS": "331 NORTH 400 WEST", "CITY": "OREM", "STATE": "UT", "ZIP": "84057", "ZIP4": "NOT AVAILABLE", "TELEPHONE": "(801) 224-4080", "TYPE": "GENERAL ACUTE CARE", "STATUS": "OPEN", "POPULATION": 18, "COUNTY": "UTAH", "COUNTYFIPS": "49049", "COUNTRY": "USA", "LATITUDE": 40.302885447999998, "LONGITUDE": -111.707974041, "NAICS_CODE": "622110", "NAICS_DESC": "GENERAL MEDICAL AND SURGICAL HOSPITALS", "SOURCE": "https:\/\/opendata.utah.gov\/Health\/Utah-Hospital-Characteristics\/ierb-h3t5\/data", "SOURCEDATE": "2018\/08\/11", "VAL_METHOD": "IMAGERY", "VAL_DATE": "2014\/02\/10", "WEBSITE": "http:\/\/www.intermountainhealthcare.org", "STATE_ID": "NOT AVAILABLE", "ALT_NAME": "NOT AVAILABLE", "ST_FIPS": "49", "OWNER": "NON-PROFIT", "TTL_STAFF": -999, "BEDS": 18, "TRAUMA": "NOT AVAILABLE", "HELIPAD": "N" }, "geometry": { "type": "Point", "coordinates": [ -111.707974040999616, 40.302885448000062 ] } },
{ "type": "Feature", "properties": { "FID": 55, "OBJECTID": 6532, "ID": "0002784057", "NAME": "TIMPANOGOS REGIONAL HOSPITAL", "ADDRESS": "750 WEST 800 NORTH", "CITY": "OREM", "STATE": "UT", "ZIP": "84057", "ZIP4": "NOT AVAILABLE", "TELEPHONE": "(801) 714-6000", "TYPE": "GENERAL ACUTE CARE", "STATUS": "OPEN", "POPULATION": 117, "COUNTY": "UTAH", "COUNTYFIPS": "49049", "COUNTRY": "USA", "LATITUDE": 40.3135935970001, "LONGITUDE": -111.71369112799999, "NAICS_CODE": "622110", "NAICS_DESC": "GENERAL MEDICAL AND SURGICAL HOSPITALS", "SOURCE": "https:\/\/opendata.utah.gov\/Health\/Utah-Hospital-Characteristics\/ierb-h3t5\/data", "SOURCEDATE": "2018\/08\/11", "VAL_METHOD": "IMAGERY", "VAL_DATE": "2014\/03\/12", "WEBSITE": "http:\/\/www.timpanogosregionalhospital.com", "STATE_ID": "NOT AVAILABLE", "ALT_NAME": "NOT AVAILABLE", "ST_FIPS": "49", "OWNER": "PROPRIETARY", "TTL_STAFF": -999, "BEDS": 117, "TRAUMA": "LEVEL IV", "HELIPAD": "Y" }, "geometry": { "type": "Point", "coordinates": [ -111.713691127999979, 40.313593597000072 ] } },
{ "type": "Feature", "properties": { "FID": 56, "OBJECTID": 6537, "ID": "0000384302", "NAME": "BRIGHAM CITY COMMUNITY HOSPITAL", "ADDRESS": "950 SOUTH MEDICAL DRIVE", "CITY": "BRIGHAM CITY", "STATE": "UT", "ZIP": "84302", "ZIP4": "NOT AVAILABLE", "TELEPHONE": "(435) 734-9471", "TYPE": "GENERAL ACUTE CARE", "STATUS": "OPEN", "POPULATION": 39, "COUNTY": "BOX ELDER", "COUNTYFIPS": "49003", "COUNTRY": "USA", "LATITUDE": 41.491227149000103, "LONGITUDE": -112.025755668, "NAICS_CODE": "622110", "NAICS_DESC": "GENERAL MEDICAL AND SURGICAL HOSPITALS", "SOURCE": "https:\/\/opendata.utah.gov\/Health\/Utah-Hospital-Characteristics\/ierb-h3t5\/data", "SOURCEDATE": "2018\/08\/11", "VAL_METHOD": "IMAGERY", "VAL_DATE": "2014\/03\/12", "WEBSITE": "http:\/\/www.brighamcityhospital.com", "STATE_ID": "NOT AVAILABLE", "ALT_NAME": "NOT AVAILABLE", "ST_FIPS": "49", "OWNER": "PROPRIETARY", "TTL_STAFF": -999, "BEDS": 39, "TRAUMA": "LEVEL IV", "HELIPAD": "Y" }, "geometry": { "type": "Point", "coordinates": [ -112.025755667999633, 41.491227149000046 ] } },
{ "type": "Feature", "properties": { "FID": 57, "OBJECTID": 6538, "ID": "0003984337", "NAME": "BEAR RIVER VALLEY HOSPITAL", "ADDRESS": "905 NORTH 1000 WEST", "CITY": "TREMONTON", "STATE": "UT", "ZIP": "84337", "ZIP4": "NOT AVAILABLE", "TELEPHONE": "(435) 207-4500", "TYPE": "GENERAL ACUTE CARE", "STATUS": "OPEN", "POPULATION": 14, "COUNTY": "BOX ELDER", "COUNTYFIPS": "49003", "COUNTRY": "USA", "LATITUDE": 41.724148708000001, "LONGITUDE": -112.182576931, "NAICS_CODE": "622110", "NAICS_DESC": "GENERAL MEDICAL AND SURGICAL HOSPITALS", "SOURCE": "https:\/\/opendata.utah.gov\/Health\/Utah-Hospital-Characteristics\/ierb-h3t5\/data", "SOURCEDATE": "2018\/08\/11", "VAL_METHOD": "IMAGERY", "VAL_DATE": "2014\/02\/10", "WEBSITE": "http:\/\/www.intermountainhealthcare.org\/hospitals\/bearriver", "STATE_ID": "NOT AVAILABLE", "ALT_NAME": "NOT AVAILABLE", "ST_FIPS": "49", "OWNER": "NON-PROFIT", "TTL_STAFF": -999, "BEDS": 14, "TRAUMA": "LEVEL IV", "HELIPAD": "Y" }, "geometry": { "type": "Point", "coordinates": [ -112.182576931000384, 41.724148708000065 ] } },
{ "type": "Feature", "properties": { "FID": 58, "OBJECTID": 6539, "ID": "0001484088", "NAME": "JORDAN VALLEY MEDICAL CENTER", "ADDRESS": "3580 WEST 9000 SOUTH", "CITY": "WEST JORDAN", "STATE": "UT", "ZIP": "84088", "ZIP4": "NOT AVAILABLE", "TELEPHONE": "(801) 561-8888", "TYPE": "GENERAL ACUTE CARE", "STATUS": "OPEN", "POPULATION": 183, "COUNTY": "SALT LAKE", "COUNTYFIPS": "49035", "COUNTRY": "USA", "LATITUDE": 40.590362363000096, "LONGITUDE": -111.974970398, "NAICS_CODE": "622110", "NAICS_DESC": "GENERAL MEDICAL AND SURGICAL HOSPITALS", "SOURCE": "https:\/\/opendata.utah.gov\/Health\/Utah-Hospital-Characteristics\/ierb-h3t5\/data", "SOURCEDATE": "2018\/08\/11", "VAL_METHOD": "IMAGERY\/OTHER", "VAL_DATE": "2014\/03\/12", "WEBSITE": "http:\/\/www.jordanvalleymc.com", "STATE_ID": "NOT AVAILABLE", "ALT_NAME": "NOT AVAILABLE", "ST_FIPS": "49", "OWNER": "PROPRIETARY", "TTL_STAFF": -999, "BEDS": 183, "TRAUMA": "LEVEL III", "HELIPAD": "Y" }, "geometry": { "type": "Point", "coordinates": [ -111.974970397999627, 40.590362363000047 ] } },
{ "type": "Feature", "properties": { "FID": 59, "OBJECTID": 6540, "ID": "0002284107", "NAME": "THE ORTHOPEDIC SPECIALTY HOSPITAL", "ADDRESS": "5848 WEST FASHION BOULEVARD", "CITY": "MURRAY", "STATE": "UT", "ZIP": "84107", "ZIP4": "NOT AVAILABLE", "TELEPHONE": "(801) 314-4100", "TYPE": "GENERAL ACUTE CARE", "STATUS": "OPEN", "POPULATION": 36, "COUNTY": "SALT LAKE", "COUNTYFIPS": "49035", "COUNTRY": "USA", "LATITUDE": 40.6443838530001, "LONGITUDE": -111.883580761, "NAICS_CODE": "622110", "NAICS_DESC": "GENERAL MEDICAL AND SURGICAL HOSPITALS", "SOURCE": "https:\/\/opendata.utah.gov\/Health\/Utah-Hospital-Characteristics\/ierb-h3t5\/data", "SOURCEDATE": "2018\/08\/11", "VAL_METHOD": "IMAGERY\/OTHER", "VAL_DATE": "2014\/02\/10", "WEBSITE": "http:\/\/www.intermountainhealthcare.org", "STATE_ID": "NOT AVAILABLE", "ALT_NAME": "NOT AVAILABLE", "ST_FIPS": "49", "OWNER": "NON-PROFIT", "TTL_STAFF": -999, "BEDS": 36, "TRAUMA": "NOT AVAILABLE", "HELIPAD": "N" }, "geometry": { "type": "Point", "coordinates": [ -111.88358076099982, 40.644383853000036 ] } },
{ "type": "Feature", "properties": { "FID": 60, "OBJECTID": 6541, "ID": "0002384107", "NAME": "INTERMOUNTAIN MEDICAL CENTER", "ADDRESS": "5121 SOUTH COTTONWOOD STREET", "CITY": "MURRAY", "STATE": "UT", "ZIP": "84107", "ZIP4": "NOT AVAILABLE", "TELEPHONE": "(801) 507-6600", "TYPE": "GENERAL ACUTE CARE", "STATUS": "OPEN", "POPULATION": 452, "COUNTY": "SALT LAKE", "COUNTYFIPS": "49035", "COUNTRY": "USA", "LATITUDE": 40.659689940000099, "LONGITUDE": -111.890836433, "NAICS_CODE": "622110", "NAICS_DESC": "GENERAL MEDICAL AND SURGICAL HOSPITALS", "SOURCE": "https:\/\/opendata.utah.gov\/Health\/Utah-Hospital-Characteristics\/ierb-h3t5\/data", "SOURCEDATE": "2018\/08\/11", "VAL_METHOD": "IMAGERY", "VAL_DATE": "2014\/03\/12", "WEBSITE": "http:\/\/www.intermountainhealthcare.org", "STATE_ID": "NOT AVAILABLE", "ALT_NAME": "NOT AVAILABLE", "ST_FIPS": "49", "OWNER": "NON-PROFIT", "TTL_STAFF": -999, "BEDS": 452, "TRAUMA": "LEVEL I", "HELIPAD": "Y" }, "geometry": { "type": "Point", "coordinates": [ -111.890836432999791, 40.659689940000035 ] } },
{ "type": "Feature", "properties": { "FID": 61, "OBJECTID": 6545, "ID": "0002984102", "NAME": "SALT LAKE REGIONAL MEDICAL CENTER", "ADDRESS": "1050 EAST SOUTH TEMPLE", "CITY": "SALT LAKE CITY", "STATE": "UT", "ZIP": "84102", "ZIP4": "NOT AVAILABLE", "TELEPHONE": "(801) 350-4111", "TYPE": "GENERAL ACUTE CARE", "STATUS": "OPEN", "POPULATION": 132, "COUNTY": "SALT LAKE", "COUNTYFIPS": "49035", "COUNTRY": "USA", "LATITUDE": 40.767891216000102, "LONGITUDE": -111.861423332, "NAICS_CODE": "622110", "NAICS_DESC": "GENERAL MEDICAL AND SURGICAL HOSPITALS", "SOURCE": "https:\/\/opendata.utah.gov\/Health\/Utah-Hospital-Characteristics\/ierb-h3t5\/data", "SOURCEDATE": "2018\/08\/11", "VAL_METHOD": "IMAGERY", "VAL_DATE": "2014\/03\/12", "WEBSITE": "http:\/\/www.saltlakeregional.com", "STATE_ID": "NOT AVAILABLE", "ALT_NAME": "NOT AVAILABLE", "ST_FIPS": "49", "OWNER": "PROPRIETARY", "TTL_STAFF": -999, "BEDS": 132, "TRAUMA": "NOT AVAILABLE", "HELIPAD": "Y" }, "geometry": { "type": "Point", "coordinates": [ -111.861423331999532, 40.767891216000038 ] } },
{ "type": "Feature", "properties": { "FID": 62, "OBJECTID": 6547, "ID": "0003084108", "NAME": "VETERANS ADMINISTRATION MEDICAL CENTER", "ADDRESS": "500 FOOTHILL DRIVE", "CITY": "SALT LAKE CITY", "STATE": "UT", "ZIP": "84108", "ZIP4": "NOT AVAILABLE", "TELEPHONE": "(801) 582-1565", "TYPE": "MILITARY", "STATUS": "OPEN", "POPULATION": 121, "COUNTY": "SALT LAKE", "COUNTYFIPS": "49035", "COUNTRY": "USA", "LATITUDE": 40.75744051, "LONGITUDE": -111.840564548, "NAICS_CODE": "622110", "NAICS_DESC": "GENERAL MEDICAL AND SURGICAL HOSPITALS", "SOURCE": "https:\/\/opendata.utah.gov\/Health\/Utah-Hospital-Characteristics\/ierb-h3t5\/data", "SOURCEDATE": "2018\/08\/11", "VAL_METHOD": "IMAGERY", "VAL_DATE": "2014\/03\/12", "WEBSITE": "http:\/\/www.saltlakecity.va.gov\/", "STATE_ID": "NOT AVAILABLE", "ALT_NAME": "NOT AVAILABLE", "ST_FIPS": "49", "OWNER": "GOVERNMENT - FEDERAL", "TTL_STAFF": -999, "BEDS": 121, "TRAUMA": "NOT AVAILABLE", "HELIPAD": "Y" }, "geometry": { "type": "Point", "coordinates": [ -111.840564547999946, 40.757440510000052 ] } },
{ "type": "Feature", "properties": { "FID": 63, "OBJECTID": 6548, "ID": "0003184094", "NAME": "ALTA VIEW HOSPITAL", "ADDRESS": "9660 SOUTH 1300 EAST", "CITY": "SANDY", "STATE": "UT", "ZIP": "84094", "ZIP4": "NOT AVAILABLE", "TELEPHONE": "(801) 501-2600", "TYPE": "GENERAL ACUTE CARE", "STATUS": "OPEN", "POPULATION": 71, "COUNTY": "SALT LAKE", "COUNTYFIPS": "49035", "COUNTRY": "USA", "LATITUDE": 40.575905152000097, "LONGITUDE": -111.853961435, "NAICS_CODE": "622110", "NAICS_DESC": "GENERAL MEDICAL AND SURGICAL HOSPITALS", "SOURCE": "https:\/\/opendata.utah.gov\/Health\/Utah-Hospital-Characteristics\/ierb-h3t5\/data", "SOURCEDATE": "2018\/08\/11", "VAL_METHOD": "IMAGERY", "VAL_DATE": "2014\/03\/12", "WEBSITE": "http:\/\/www.intermountainhealthcare.org", "STATE_ID": "NOT AVAILABLE", "ALT_NAME": "NOT AVAILABLE", "ST_FIPS": "49", "OWNER": "NON-PROFIT", "TTL_STAFF": -999, "BEDS": 71, "TRAUMA": "NOT AVAILABLE", "HELIPAD": "Y" }, "geometry": { "type": "Point", "coordinates": [ -111.853961435000357, 40.57590515200004 ] } },
{ "type": "Feature", "properties": { "FID": 64, "OBJECTID": 6551, "ID": "0003384112", "NAME": "UNIVERSITY OF UTAH HOSPITAL", "ADDRESS": "50 NORTH MEDICAL DRIVE", "CITY": "SALT LAKE CITY", "STATE": "UT", "ZIP": "84112", "ZIP4": "NOT AVAILABLE", "TELEPHONE": "(801) 581-2121", "TYPE": "GENERAL ACUTE CARE", "STATUS": "OPEN", "POPULATION": 526, "COUNTY": "SALT LAKE", "COUNTYFIPS": "49035", "COUNTRY": "USA", "LATITUDE": 40.771273092999998, "LONGITUDE": -111.836113021, "NAICS_CODE": "622110", "NAICS_DESC": "GENERAL MEDICAL AND SURGICAL HOSPITALS", "SOURCE": "https:\/\/opendata.utah.gov\/Health\/Utah-Hospital-Characteristics\/ierb-h3t5\/data", "SOURCEDATE": "2018\/08\/11", "VAL_METHOD": "IMAGERY", "VAL_DATE": "2014\/03\/12", "WEBSITE": "http:\/\/www.uuhsc.utah.edu", "STATE_ID": "NOT AVAILABLE", "ALT_NAME": "NOT AVAILABLE", "ST_FIPS": "49", "OWNER": "GOVERNMENT - STATE", "TTL_STAFF": -999, "BEDS": 526, "TRAUMA": "LEVEL I", "HELIPAD": "Y" }, "geometry": { "type": "Point", "coordinates": [ -111.836113020999889, 40.771273093000033 ] } },
{ "type": "Feature", "properties": { "FID": 65, "OBJECTID": 6552, "ID": "0003484103", "NAME": "SHRINERS HOSPITAL FOR CHILDREN", "ADDRESS": "356 NORTH VIRGINIA STREET", "CITY": "SALT LAKE CITY", "STATE": "UT", "ZIP": "84103", "ZIP4": "NOT AVAILABLE", "TELEPHONE": "(801) 536-3500", "TYPE": "CHILDREN", "STATUS": "OPEN", "POPULATION": 40, "COUNTY": "SALT LAKE", "COUNTYFIPS": "49035", "COUNTRY": "USA", "LATITUDE": 40.7774365060001, "LONGITUDE": -111.850430402, "NAICS_CODE": "622110", "NAICS_DESC": "CHILDREN'S HOSPITALS, GENERAL", "SOURCE": "https:\/\/opendata.utah.gov\/Health\/Utah-Hospital-Characteristics\/ierb-h3t5\/data", "SOURCEDATE": "2018\/08\/11", "VAL_METHOD": "IMAGERY", "VAL_DATE": "2014\/02\/10", "WEBSITE": "http:\/\/www.shrinershospitalsforchildren.org\/Hospitals\/Locations\/SaltL akeCity.aspx", "STATE_ID": "NOT AVAILABLE", "ALT_NAME": "NOT AVAILABLE", "ST_FIPS": "49", "OWNER": "NON-PROFIT", "TTL_STAFF": -999, "BEDS": 40, "TRAUMA": "NOT AVAILABLE", "HELIPAD": "N" }, "geometry": { "type": "Point", "coordinates": [ -111.850430401999773, 40.777436506000086 ] } },
{ "type": "Feature", "properties": { "FID": 66, "OBJECTID": 6554, "ID": "0003584108", "NAME": "UNIVERSITY OF UTAH NEUROPSYCHIATRIC INSTITUTE (UNI)", "ADDRESS": "501 CHIPETA WAY", "CITY": "SALT LAKE CITY", "STATE": "UT", "ZIP": "84108", "ZIP4": "NOT AVAILABLE", "TELEPHONE": "(801) 583-2500", "TYPE": "PSYCHIATRIC", "STATUS": "OPEN", "POPULATION": 94, "COUNTY": "SALT LAKE", "COUNTYFIPS": "49035", "COUNTRY": "USA", "LATITUDE": 40.757913741000003, "LONGITUDE": -111.822731762, "NAICS_CODE": "622210", "NAICS_DESC": "PSYCHIATRIC AND SUBSTANCE ABUSE HOSPITALS", "SOURCE": "https:\/\/opendata.utah.gov\/Health\/Utah-Hospital-Characteristics\/ierb-h3t5\/data", "SOURCEDATE": "2018\/08\/11", "VAL_METHOD": "IMAGERY\/OTHER", "VAL_DATE": "2013\/12\/06", "WEBSITE": "http:\/\/www.med.utah.edu\/uni", "STATE_ID": "NOT AVAILABLE", "ALT_NAME": "NOT AVAILABLE", "ST_FIPS": "49", "OWNER": "GOVERNMENT - STATE", "TTL_STAFF": -999, "BEDS": 94, "TRAUMA": "NOT AVAILABLE", "HELIPAD": "N" }, "geometry": { "type": "Point", "coordinates": [ -111.822731762000359, 40.757913741000031 ] } },
{ "type": "Feature", "properties": { "FID": 67, "OBJECTID": 6555, "ID": "0005184124", "NAME": "ST. MARKS HOSPITAL", "ADDRESS": "1200 EAST 3900 SOUTH", "CITY": "SALT LAKE CITY", "STATE": "UT", "ZIP": "84124", "ZIP4": "NOT AVAILABLE", "TELEPHONE": "(801) 268-7111", "TYPE": "GENERAL ACUTE CARE", "STATUS": "OPEN", "POPULATION": 317, "COUNTY": "SALT LAKE", "COUNTYFIPS": "49035", "COUNTRY": "USA", "LATITUDE": 40.685958265000103, "LONGITUDE": -111.857140907, "NAICS_CODE": "622110", "NAICS_DESC": "GENERAL MEDICAL AND SURGICAL HOSPITALS", "SOURCE": "https:\/\/opendata.utah.gov\/Health\/Utah-Hospital-Characteristics\/ierb-h3t5\/data", "SOURCEDATE": "2018\/08\/11", "VAL_METHOD": "IMAGERY", "VAL_DATE": "2014\/03\/12", "WEBSITE": "http:\/\/www.stmarkshospital.com", "STATE_ID": "NOT AVAILABLE", "ALT_NAME": "NOT AVAILABLE", "ST_FIPS": "49", "OWNER": "PROPRIETARY", "TTL_STAFF": -999, "BEDS": 317, "TRAUMA": "LEVEL III", "HELIPAD": "Y" }, "geometry": { "type": "Point", "coordinates": [ -111.857140907000073, 40.685958265000032 ] } },
{ "type": "Feature", "properties": { "FID": 68, "OBJECTID": 6559, "ID": "0000484631", "NAME": "FILLMORE COMMUNITY MEDICAL CENTER", "ADDRESS": "674 SOUTH STATE HIGHWAY 99", "CITY": "FILLMORE", "STATE": "UT", "ZIP": "84631", "ZIP4": "NOT AVAILABLE", "TELEPHONE": "(435) 743-5591", "TYPE": "CRITICAL ACCESS", "STATUS": "OPEN", "POPULATION": 19, "COUNTY": "MILLARD", "COUNTYFIPS": "49027", "COUNTRY": "USA", "LATITUDE": 38.954777444999998, "LONGITUDE": -112.340276972, "NAICS_CODE": "622110", "NAICS_DESC": "GENERAL MEDICAL AND SURGICAL HOSPITALS", "SOURCE": "https:\/\/opendata.utah.gov\/Health\/Utah-Hospital-Characteristics\/ierb-h3t5\/data", "SOURCEDATE": "2018\/08\/11", "VAL_METHOD": "IMAGERY\/OTHER", "VAL_DATE": "2014\/02\/10", "WEBSITE": "http:\/\/www.ihc.com", "STATE_ID": "NOT AVAILABLE", "ALT_NAME": "NOT AVAILABLE", "ST_FIPS": "49", "OWNER": "NON-PROFIT", "TTL_STAFF": -999, "BEDS": 19, "TRAUMA": "LEVEL V", "HELIPAD": "Y" }, "geometry": { "type": "Point", "coordinates": [ -112.340276972000382, 38.954777445000019 ] } }
]
}
